{
"type": "FeatureCollection",
"crs": { "type": "name", "properties": { "name": "urn:ogc:def:crs:OGC:1.3:CRS84" } },
"features": [
{ "type": "Feature", "properties": { "ID": "IDFM:28984", "LIGNE": "A", "STATION": "Gare Saint-Lazare" }, "geometry": { "type": "Point", "coordinates": [ 2.326074155908393, 48.875420588720381 ] } },
{ "type": "Feature", "properties": { "ID": "IDFM:426791", "LIGNE": "B", "STATION": "Roissypole - Aéroport CDG1 (B1)" }, "geometry": { "type": "Point", "coordinates": [ 2.55980962224797, 49.010246700549658 ] } },
{ "type": "Feature", "properties": { "ID": "IDFM:472957", "LIGNE": "B", "STATION": "Sevran Beaudottes" }, "geometry": { "type": "Point", "coordinates": [ 2.523913241273579, 48.947666743663817 ] } },
{ "type": "Feature", "properties": { "ID": "IDFM:482365", "LIGNE": "C", "STATION": "Petit Jouy Les Loges" }, "geometry": { "type": "Point", "coordinates": [ 2.147822925316284, 48.771770701811825 ] } },
{ "type": "Feature", "properties": { "ID": "IDFM:472198", "LIGNE": "C", "STATION": "Gare de Jouy-en-Josas" }, "geometry": { "type": "Point", "coordinates": [ 2.163390419214656, 48.764946047000031 ] } },
{ "type": "Feature", "properties": { "ID": "IDFM:20326", "LIGNE": "C", "STATION": "Gare de Vauboyen" }, "geometry": { "type": "Point", "coordinates": [ 2.19042585047182, 48.757864847419505 ] } },
{ "type": "Feature", "properties": { "ID": "IDFM:11554", "LIGNE": "C", "STATION": "Gare de Bièvres" }, "geometry": { "type": "Point", "coordinates": [ 2.215758695760935, 48.751351005646221 ] } },
{ "type": "Feature", "properties": { "ID": "IDFM:3087", "LIGNE": "C", "STATION": "Gare d'Etrechy" }, "geometry": { "type": "Point", "coordinates": [ 2.19399973757299, 48.493746253163387 ] } },
{ "type": "Feature", "properties": { "ID": "IDFM:3011", "LIGNE": "C", "STATION": "Gare d'Étampes" }, "geometry": { "type": "Point", "coordinates": [ 2.159735062368615, 48.436676863457905 ] } },
{ "type": "Feature", "properties": { "ID": "IDFM:2921", "LIGNE": "C", "STATION": "Gare de Breuillet Village" }, "geometry": { "type": "Point", "coordinates": [ 2.171831602352254, 48.564762739421369 ] } },
{ "type": "Feature", "properties": { "ID": "IDFM:2919", "LIGNE": "C", "STATION": "Gare de Breuillet - Bruyères-le-Châtel" }, "geometry": { "type": "Point", "coordinates": [ 2.191417386750045, 48.577014921147608 ] } },
{ "type": "Feature", "properties": { "ID": "IDFM:2733", "LIGNE": "C", "STATION": "Gare d'Arpajon" }, "geometry": { "type": "Point", "coordinates": [ 2.241268855984888, 48.586159055523204 ] } },
{ "type": "Feature", "properties": { "ID": "IDFM:21982", "LIGNE": "10", "STATION": "Mirabeau" }, "geometry": { "type": "Point", "coordinates": [ 2.273064126372833, 48.847077507345993 ] } },
{ "type": "Feature", "properties": { "ID": "IDFM:21978", "LIGNE": "10", "STATION": "Odéon" }, "geometry": { "type": "Point", "coordinates": [ 2.340619126473996, 48.851947706076501 ] } },
{ "type": "Feature", "properties": { "ID": "IDFM:21968", "LIGNE": "10", "STATION": "Jussieu" }, "geometry": { "type": "Point", "coordinates": [ 2.354931671823226, 48.846197891637004 ] } },
{ "type": "Feature", "properties": { "ID": "IDFM:463024", "LIGNE": "10", "STATION": "Gare d'Austerlitz" }, "geometry": { "type": "Point", "coordinates": [ 2.364395394600644, 48.842282366979958 ] } },
{ "type": "Feature", "properties": { "ID": "IDFM:462998", "LIGNE": "10", "STATION": "Odéon" }, "geometry": { "type": "Point", "coordinates": [ 2.340692291066523, 48.852024554514912 ] } },
{ "type": "Feature", "properties": { "ID": "IDFM:463124", "LIGNE": "10", "STATION": "Avenue Émile Zola" }, "geometry": { "type": "Point", "coordinates": [ 2.295018997143551, 48.847038013705173 ] } },
{ "type": "Feature", "properties": { "ID": "IDFM:463254", "LIGNE": "11", "STATION": "Place des Fêtes" }, "geometry": { "type": "Point", "coordinates": [ 2.393139370360497, 48.876723661973251 ] } },
{ "type": "Feature", "properties": { "ID": "IDFM:21993", "LIGNE": "11", "STATION": "Télégraphe" }, "geometry": { "type": "Point", "coordinates": [ 2.398648089960593, 48.87551038418075 ] } },
{ "type": "Feature", "properties": { "ID": "IDFM:463108", "LIGNE": "11", "STATION": "Arts et Métiers" }, "geometry": { "type": "Point", "coordinates": [ 2.356535223129095, 48.865380699169286 ] } },
{ "type": "Feature", "properties": { "ID": "IDFM:24679", "LIGNE": "12", "STATION": "Front Populaire" }, "geometry": { "type": "Point", "coordinates": [ 2.365777177193171, 48.906763048164294 ] } },
{ "type": "Feature", "properties": { "ID": "IDFM:22054", "LIGNE": "12", "STATION": "Jules Joffrin" }, "geometry": { "type": "Point", "coordinates": [ 2.344320029380483, 48.892492268201934 ] } },
{ "type": "Feature", "properties": { "ID": "IDFM:463311", "LIGNE": "12", "STATION": "Solférino" }, "geometry": { "type": "Point", "coordinates": [ 2.323075964251542, 48.858531949728537 ] } },
{ "type": "Feature", "properties": { "ID": "IDFM:463321", "LIGNE": "12", "STATION": "Vaugirard" }, "geometry": { "type": "Point", "coordinates": [ 2.300977822126098, 48.83953628376544 ] } },
{ "type": "Feature", "properties": { "ID": "IDFM:462966", "LIGNE": "12", "STATION": "Sèvres - Babylone" }, "geometry": { "type": "Point", "coordinates": [ 2.326886801039095, 48.851574452640946 ] } },
{ "type": "Feature", "properties": { "ID": "IDFM:22046", "LIGNE": "12", "STATION": "Trinité - d'Estienne d'Orves" }, "geometry": { "type": "Point", "coordinates": [ 2.333030634158166, 48.876250967008318 ] } },
{ "type": "Feature", "properties": { "ID": "IDFM:22041", "LIGNE": "12", "STATION": "Porte de la Chapelle" }, "geometry": { "type": "Point", "coordinates": [ 2.359248542310361, 48.897402422670417 ] } },
{ "type": "Feature", "properties": { "ID": "IDFM:463086", "LIGNE": "13", "STATION": "Mairie de Clichy" }, "geometry": { "type": "Point", "coordinates": [ 2.305726300569584, 48.903448804444551 ] } },
{ "type": "Feature", "properties": { "ID": "IDFM:462978", "LIGNE": "13", "STATION": "Brochant" }, "geometry": { "type": "Point", "coordinates": [ 2.319904817209367, 48.890651871190052 ] } },
{ "type": "Feature", "properties": { "ID": "IDFM:462975", "LIGNE": "13", "STATION": "La Fourche" }, "geometry": { "type": "Point", "coordinates": [ 2.325714117166136, 48.88743365673691 ] } },
{ "type": "Feature", "properties": { "ID": "IDFM:22218", "LIGNE": "13", "STATION": "Saint-Lazare" }, "geometry": { "type": "Point", "coordinates": [ 2.325488390672613, 48.875381316007967 ] } },
{ "type": "Feature", "properties": { "ID": "IDFM:22225", "LIGNE": "13", "STATION": "Liège" }, "geometry": { "type": "Point", "coordinates": [ 2.326852671239755, 48.879534937375759 ] } },
{ "type": "Feature", "properties": { "ID": "IDFM:22227", "LIGNE": "13", "STATION": "La Fourche" }, "geometry": { "type": "Point", "coordinates": [ 2.325686960766736, 48.887424510518066 ] } },
{ "type": "Feature", "properties": { "ID": "IDFM:463112", "LIGNE": "14", "STATION": "Bibliothèque François Mitterrand" }, "geometry": { "type": "Point", "coordinates": [ 2.376487371168301, 48.829925765928905 ] } },
{ "type": "Feature", "properties": { "ID": "IDFM:463071", "LIGNE": "3B", "STATION": "Saint-Fargeau" }, "geometry": { "type": "Point", "coordinates": [ 2.404361344448241, 48.871887658077014 ] } },
{ "type": "Feature", "properties": { "ID": "IDFM:24683", "LIGNE": "7B", "STATION": "Buttes Chaumont" }, "geometry": { "type": "Point", "coordinates": [ 2.381569842088008, 48.87849908839857 ] } },
{ "type": "Feature", "properties": { "ID": "IDFM:463156", "LIGNE": "7B", "STATION": "Buttes Chaumont" }, "geometry": { "type": "Point", "coordinates": [ 2.381632921459486, 48.878422971131464 ] } },
{ "type": "Feature", "properties": { "ID": "IDFM:24686", "LIGNE": "7B", "STATION": "Botzaris" }, "geometry": { "type": "Point", "coordinates": [ 2.388908111185046, 48.879436101601172 ] } },
{ "type": "Feature", "properties": { "ID": "IDFM:463170", "LIGNE": "1", "STATION": "Esplanade de la Défense" }, "geometry": { "type": "Point", "coordinates": [ 2.249931086743073, 48.888349893948622 ] } },
{ "type": "Feature", "properties": { "ID": "IDFM:463044", "LIGNE": "1", "STATION": "Pont de Neuilly" }, "geometry": { "type": "Point", "coordinates": [ 2.258522572948158, 48.885498550445199 ] } },
{ "type": "Feature", "properties": { "ID": "IDFM:463257", "LIGNE": "1", "STATION": "Porte Maillot" }, "geometry": { "type": "Point", "coordinates": [ 2.28228961394119, 48.877805650437985 ] } },
{ "type": "Feature", "properties": { "ID": "IDFM:22082", "LIGNE": "1", "STATION": "Franklin D. Roosevelt" }, "geometry": { "type": "Point", "coordinates": [ 2.309359666519628, 48.869164825634897 ] } },
{ "type": "Feature", "properties": { "ID": "IDFM:22090", "LIGNE": "1", "STATION": "Champs-Élysées - Clemenceau" }, "geometry": { "type": "Point", "coordinates": [ 2.314397292025236, 48.867583959552555 ] } },
{ "type": "Feature", "properties": { "ID": "IDFM:22087", "LIGNE": "1", "STATION": "Châtelet" }, "geometry": { "type": "Point", "coordinates": [ 2.345760954184775, 48.859224713428162 ] } },
{ "type": "Feature", "properties": { "ID": "IDFM:22103", "LIGNE": "1", "STATION": "Saint-Mandé" }, "geometry": { "type": "Point", "coordinates": [ 2.418962354532708, 48.846238208060065 ] } },
{ "type": "Feature", "properties": { "ID": "IDFM:22105", "LIGNE": "1", "STATION": "Bérault" }, "geometry": { "type": "Point", "coordinates": [ 2.429204974099057, 48.845406148393309 ] } },
{ "type": "Feature", "properties": { "ID": "IDFM:462943", "LIGNE": "1", "STATION": "Nation" }, "geometry": { "type": "Point", "coordinates": [ 2.395825965451431, 48.848169637597977 ] } },
{ "type": "Feature", "properties": { "ID": "IDFM:463181", "LIGNE": "1", "STATION": "Franklin D. Roosevelt" }, "geometry": { "type": "Point", "coordinates": [ 2.309434325751582, 48.86925069418826 ] } },
{ "type": "Feature", "properties": { "ID": "IDFM:463013", "LIGNE": "1", "STATION": "Charles de Gaulle - Etoile" }, "geometry": { "type": "Point", "coordinates": [ 2.295117213823033, 48.873929264455327 ] } },
{ "type": "Feature", "properties": { "ID": "IDFM:22078", "LIGNE": "1", "STATION": "Porte Maillot" }, "geometry": { "type": "Point", "coordinates": [ 2.28258384736155, 48.878162653644551 ] } },
{ "type": "Feature", "properties": { "ID": "IDFM:463193", "LIGNE": "1", "STATION": "La Défense (Grande Arche)" }, "geometry": { "type": "Point", "coordinates": [ 2.238357920001037, 48.891995588868021 ] } },
{ "type": "Feature", "properties": { "ID": "IDFM:463117", "LIGNE": "2", "STATION": "Alexandre Dumas" }, "geometry": { "type": "Point", "coordinates": [ 2.394712733755479, 48.856244678437371 ] } },
{ "type": "Feature", "properties": { "ID": "IDFM:22112", "LIGNE": "2", "STATION": "Père Lachaise" }, "geometry": { "type": "Point", "coordinates": [ 2.38768932606569, 48.86248637862667 ] } },
{ "type": "Feature", "properties": { "ID": "IDFM:463296", "LIGNE": "2", "STATION": "Rome" }, "geometry": { "type": "Point", "coordinates": [ 2.321359173822973, 48.882345818796139 ] } },
{ "type": "Feature", "properties": { "ID": "IDFM:22094", "LIGNE": "2", "STATION": "Charles de Gaulle - Etoile" }, "geometry": { "type": "Point", "coordinates": [ 2.295811775235763, 48.874994576171083 ] } },
{ "type": "Feature", "properties": { "ID": "IDFM:22108", "LIGNE": "2", "STATION": "Ternes" }, "geometry": { "type": "Point", "coordinates": [ 2.298113652198307, 48.878200752828299 ] } },
{ "type": "Feature", "properties": { "ID": "IDFM:463120", "LIGNE": "2", "STATION": "Anvers" }, "geometry": { "type": "Point", "coordinates": [ 2.344154840330292, 48.882868568843925 ] } },
{ "type": "Feature", "properties": { "ID": "IDFM:22107", "LIGNE": "2", "STATION": "Stalingrad" }, "geometry": { "type": "Point", "coordinates": [ 2.365751439124989, 48.884243984567746 ] } },
{ "type": "Feature", "properties": { "ID": "IDFM:462981", "LIGNE": "2", "STATION": "Jaurès" }, "geometry": { "type": "Point", "coordinates": [ 2.370153970336997, 48.881596221131936 ] } },
{ "type": "Feature", "properties": { "ID": "IDFM:463285", "LIGNE": "2", "STATION": "Père Lachaise" }, "geometry": { "type": "Point", "coordinates": [ 2.387579891254445, 48.862449844937458 ] } },
{ "type": "Feature", "properties": { "ID": "IDFM:463174", "LIGNE": "3", "STATION": "Gallieni" }, "geometry": { "type": "Point", "coordinates": [ 2.415921484287642, 48.865397460686538 ] } },
{ "type": "Feature", "properties": { "ID": "IDFM:462991", "LIGNE": "3", "STATION": "Gambetta" }, "geometry": { "type": "Point", "coordinates": [ 2.397358877566647, 48.86497267606974 ] } },
{ "type": "Feature", "properties": { "ID": "IDFM:462946", "LIGNE": "3", "STATION": "République" }, "geometry": { "type": "Point", "coordinates": [ 2.364333297545428, 48.867203068227759 ] } },
{ "type": "Feature", "properties": { "ID": "IDFM:463122", "LIGNE": "3", "STATION": "Arts et Métiers" }, "geometry": { "type": "Point", "coordinates": [ 2.356682273418717, 48.865615318999879 ] } },
{ "type": "Feature", "properties": { "ID": "IDFM:22029", "LIGNE": "3", "STATION": "Sentier" }, "geometry": { "type": "Point", "coordinates": [ 2.347553815937788, 48.867346604293758 ] } },
{ "type": "Feature", "properties": { "ID": "IDFM:463246", "LIGNE": "3", "STATION": "Opéra" }, "geometry": { "type": "Point", "coordinates": [ 2.331128974301561, 48.871509832784177 ] } },
{ "type": "Feature", "properties": { "ID": "IDFM:463189", "LIGNE": "3", "STATION": "Havre-Caumartin" }, "geometry": { "type": "Point", "coordinates": [ 2.32755854621969, 48.873549317871102 ] } },
{ "type": "Feature", "properties": { "ID": "IDFM:21963", "LIGNE": "3", "STATION": "Saint-Lazare" }, "geometry": { "type": "Point", "coordinates": [ 2.324606776069679, 48.875025603040974 ] } },
{ "type": "Feature", "properties": { "ID": "IDFM:463070", "LIGNE": "3", "STATION": "Wagram" }, "geometry": { "type": "Point", "coordinates": [ 2.304673087584434, 48.8838463907272 ] } },
{ "type": "Feature", "properties": { "ID": "IDFM:463228", "LIGNE": "3", "STATION": "Pereire" }, "geometry": { "type": "Point", "coordinates": [ 2.297701123838181, 48.884929864637186 ] } },
{ "type": "Feature", "properties": { "ID": "IDFM:463119", "LIGNE": "3", "STATION": "Anatole France" }, "geometry": { "type": "Point", "coordinates": [ 2.28481221935251, 48.892232585396513 ] } },
{ "type": "Feature", "properties": { "ID": "IDFM:463258", "LIGNE": "3", "STATION": "Porte de Champerret" }, "geometry": { "type": "Point", "coordinates": [ 2.292112482158845, 48.885652393133846 ] } },
{ "type": "Feature", "properties": { "ID": "IDFM:462971", "LIGNE": "3", "STATION": "Saint-Lazare" }, "geometry": { "type": "Point", "coordinates": [ 2.324492470170795, 48.874966501034429 ] } },
{ "type": "Feature", "properties": { "ID": "IDFM:462986", "LIGNE": "3", "STATION": "Sentier" }, "geometry": { "type": "Point", "coordinates": [ 2.347513710821989, 48.86728343166051 ] } },
{ "type": "Feature", "properties": { "ID": "IDFM:463250", "LIGNE": "3", "STATION": "Parmentier" }, "geometry": { "type": "Point", "coordinates": [ 2.374680676374661, 48.865162111168765 ] } },
{ "type": "Feature", "properties": { "ID": "IDFM:463297", "LIGNE": "3", "STATION": "Rue Saint-Maur" }, "geometry": { "type": "Point", "coordinates": [ 2.380460033961077, 48.86405000324374 ] } },
{ "type": "Feature", "properties": { "ID": "IDFM:22020", "LIGNE": "3", "STATION": "Père Lachaise" }, "geometry": { "type": "Point", "coordinates": [ 2.386157046298338, 48.86296417435419 ] } },
{ "type": "Feature", "properties": { "ID": "IDFM:21950", "LIGNE": "3", "STATION": "Gambetta" }, "geometry": { "type": "Point", "coordinates": [ 2.397353102563538, 48.864882712956422 ] } },
{ "type": "Feature", "properties": { "ID": "IDFM:463072", "LIGNE": "4", "STATION": "Réaumur - Sébastopol" }, "geometry": { "type": "Point", "coordinates": [ 2.352381731140252, 48.866077771215046 ] } },
{ "type": "Feature", "properties": { "ID": "IDFM:22150", "LIGNE": "4", "STATION": "Cité" }, "geometry": { "type": "Point", "coordinates": [ 2.347232234931911, 48.854933849106708 ] } },
{ "type": "Feature", "properties": { "ID": "IDFM:22144", "LIGNE": "4", "STATION": "Mouton-Duvernet" }, "geometry": { "type": "Point", "coordinates": [ 2.32979034782274, 48.831382009093616 ] } },
{ "type": "Feature", "properties": { "ID": "IDFM:483313", "LIGNE": "4", "STATION": "Barbara" }, "geometry": { "type": "Point", "coordinates": [ 2.317417409648928, 48.809798781125401 ] } },
{ "type": "Feature", "properties": { "ID": "IDFM:483314", "LIGNE": "4", "STATION": "Bagneux - Lucie Aubrac" }, "geometry": { "type": "Point", "coordinates": [ 2.317458362049886, 48.80354822259104 ] } },
{ "type": "Feature", "properties": { "ID": "IDFM:483277", "LIGNE": "4", "STATION": "Barbara" }, "geometry": { "type": "Point", "coordinates": [ 2.317499224028404, 48.809790254307117 ] } },
{ "type": "Feature", "properties": { "ID": "IDFM:22135", "LIGNE": "4", "STATION": "Vavin" }, "geometry": { "type": "Point", "coordinates": [ 2.32902391746117, 48.842242093452064 ] } },
{ "type": "Feature", "properties": { "ID": "IDFM:463308", "LIGNE": "4", "STATION": "Saint-Placide" }, "geometry": { "type": "Point", "coordinates": [ 2.327054815066312, 48.847006651589368 ] } },
{ "type": "Feature", "properties": { "ID": "IDFM:463161", "LIGNE": "4", "STATION": "Cité" }, "geometry": { "type": "Point", "coordinates": [ 2.347361051762225, 48.854921061475807 ] } },
{ "type": "Feature", "properties": { "ID": "IDFM:463208", "LIGNE": "4", "STATION": "Les Halles" }, "geometry": { "type": "Point", "coordinates": [ 2.346127325173681, 48.862504840339398 ] } },
{ "type": "Feature", "properties": { "ID": "IDFM:22142", "LIGNE": "4", "STATION": "Réaumur - Sébastopol" }, "geometry": { "type": "Point", "coordinates": [ 2.352613903045621, 48.866043053543208 ] } },
{ "type": "Feature", "properties": { "ID": "IDFM:22153", "LIGNE": "4", "STATION": "Château d'Eau" }, "geometry": { "type": "Point", "coordinates": [ 2.356051741401586, 48.872446917595511 ] } },
{ "type": "Feature", "properties": { "ID": "IDFM:22152", "LIGNE": "4", "STATION": "Château Rouge" }, "geometry": { "type": "Point", "coordinates": [ 2.349581968025659, 48.887241930648955 ] } },
{ "type": "Feature", "properties": { "ID": "IDFM:463097", "LIGNE": "5", "STATION": "Saint-Marcel" }, "geometry": { "type": "Point", "coordinates": [ 2.360817666594004, 48.83847698406796 ] } },
{ "type": "Feature", "properties": { "ID": "IDFM:463182", "LIGNE": "5", "STATION": "Gare du Nord" }, "geometry": { "type": "Point", "coordinates": [ 2.357342884924845, 48.879680012236619 ] } },
{ "type": "Feature", "properties": { "ID": "IDFM:463280", "LIGNE": "5", "STATION": "Porte de Pantin" }, "geometry": { "type": "Point", "coordinates": [ 2.392122972328148, 48.888459211346841 ] } },
{ "type": "Feature", "properties": { "ID": "IDFM:22017", "LIGNE": "5", "STATION": "Hoche" }, "geometry": { "type": "Point", "coordinates": [ 2.403211988762674, 48.891289393864788 ] } },
{ "type": "Feature", "properties": { "ID": "IDFM:463178", "LIGNE": "5", "STATION": "Église de Pantin" }, "geometry": { "type": "Point", "coordinates": [ 2.413074999597678, 48.893244694167947 ] } },
{ "type": "Feature", "properties": { "ID": "IDFM:463017", "LIGNE": "5", "STATION": "Hoche" }, "geometry": { "type": "Point", "coordinates": [ 2.403114154894396, 48.891495749437304 ] } },
{ "type": "Feature", "properties": { "ID": "IDFM:462999", "LIGNE": "5", "STATION": "Laumière" }, "geometry": { "type": "Point", "coordinates": [ 2.379311779018099, 48.885200886890331 ] } },
{ "type": "Feature", "properties": { "ID": "IDFM:22008", "LIGNE": "5", "STATION": "Bréguet-Sabin" }, "geometry": { "type": "Point", "coordinates": [ 2.370194668589752, 48.856244054686321 ] } },
{ "type": "Feature", "properties": { "ID": "IDFM:463289", "LIGNE": "5", "STATION": "Quai de la Rapée" }, "geometry": { "type": "Point", "coordinates": [ 2.365884650750405, 48.846427325479766 ] } },
{ "type": "Feature", "properties": { "ID": "IDFM:22180", "LIGNE": "6", "STATION": "Boissière" }, "geometry": { "type": "Point", "coordinates": [ 2.290032837607437, 48.866848343417303 ] } },
{ "type": "Feature", "properties": { "ID": "IDFM:22179", "LIGNE": "6", "STATION": "Bir-Hakeim" }, "geometry": { "type": "Point", "coordinates": [ 2.28929635706346, 48.853884277263077 ] } },
{ "type": "Feature", "properties": { "ID": "IDFM:22163", "LIGNE": "6", "STATION": "Sèvres-Lecourbe" }, "geometry": { "type": "Point", "coordinates": [ 2.309467767386324, 48.845584370217551 ] } },
{ "type": "Feature", "properties": { "ID": "IDFM:463292", "LIGNE": "6", "STATION": "Raspail" }, "geometry": { "type": "Point", "coordinates": [ 2.330414471235479, 48.839066128800397 ] } },
{ "type": "Feature", "properties": { "ID": "IDFM:463103", "LIGNE": "6", "STATION": "Denfert-Rochereau" }, "geometry": { "type": "Point", "coordinates": [ 2.332803776289825, 48.834249867328879 ] } },
{ "type": "Feature", "properties": { "ID": "IDFM:22178", "LIGNE": "6", "STATION": "Bercy" }, "geometry": { "type": "Point", "coordinates": [ 2.379463070185257, 48.840176028121896 ] } },
{ "type": "Feature", "properties": { "ID": "IDFM:22182", "LIGNE": "6", "STATION": "Dugommier" }, "geometry": { "type": "Point", "coordinates": [ 2.389600770599194, 48.838951094045356 ] } },
{ "type": "Feature", "properties": { "ID": "IDFM:22175", "LIGNE": "6", "STATION": "Corvisart" }, "geometry": { "type": "Point", "coordinates": [ 2.350611225926166, 48.829860013312377 ] } },
{ "type": "Feature", "properties": { "ID": "IDFM:22155", "LIGNE": "6", "STATION": "Raspail" }, "geometry": { "type": "Point", "coordinates": [ 2.330549660589195, 48.839084872811277 ] } },
{ "type": "Feature", "properties": { "ID": "IDFM:463005", "LIGNE": "6", "STATION": "Bir-Hakeim" }, "geometry": { "type": "Point", "coordinates": [ 2.2894007376346, 48.853925368375982 ] } },
{ "type": "Feature", "properties": { "ID": "IDFM:22165", "LIGNE": "6", "STATION": "Passy" }, "geometry": { "type": "Point", "coordinates": [ 2.285839418881462, 48.857515089620328 ] } },
{ "type": "Feature", "properties": { "ID": "IDFM:463220", "LIGNE": "7", "STATION": "Mairie d'Ivry" }, "geometry": { "type": "Point", "coordinates": [ 2.383498053635828, 48.811210093393306 ] } },
{ "type": "Feature", "properties": { "ID": "IDFM:22373", "LIGNE": "7", "STATION": "Porte de Choisy" }, "geometry": { "type": "Point", "coordinates": [ 2.36462454900074, 48.820132089232395 ] } },
{ "type": "Feature", "properties": { "ID": "IDFM:22393", "LIGNE": "7", "STATION": "Fort d'Aubervilliers" }, "geometry": { "type": "Point", "coordinates": [ 2.404075377271855, 48.914756655062547 ] } },
{ "type": "Feature", "properties": { "ID": "IDFM:463152", "LIGNE": "7", "STATION": "Corentin Cariou" }, "geometry": { "type": "Point", "coordinates": [ 2.382291557164633, 48.89467266005628 ] } },
{ "type": "Feature", "properties": { "ID": "IDFM:22392", "LIGNE": "7", "STATION": "Crimée" }, "geometry": { "type": "Point", "coordinates": [ 2.37693573698238, 48.890885758928803 ] } },
{ "type": "Feature", "properties": { "ID": "IDFM:463139", "LIGNE": "7", "STATION": "Cadet" }, "geometry": { "type": "Point", "coordinates": [ 2.344383883779656, 48.876048380131323 ] } },
{ "type": "Feature", "properties": { "ID": "IDFM:463060", "LIGNE": "7", "STATION": "Châtelet" }, "geometry": { "type": "Point", "coordinates": [ 2.348102094822081, 48.856867701570522 ] } },
{ "type": "Feature", "properties": { "ID": "IDFM:22365", "LIGNE": "7", "STATION": "Place d'Italie" }, "geometry": { "type": "Point", "coordinates": [ 2.355303769754901, 48.831540244755651 ] } },
{ "type": "Feature", "properties": { "ID": "IDFM:22398", "LIGNE": "7", "STATION": "Le Kremlin-Bicêtre" }, "geometry": { "type": "Point", "coordinates": [ 2.362130413802561, 48.810252572789892 ] } },
{ "type": "Feature", "properties": { "ID": "IDFM:22400", "LIGNE": "7", "STATION": "Villejuif - Louis Aragon" }, "geometry": { "type": "Point", "coordinates": [ 2.36783901176962, 48.787537170998881 ] } },
{ "type": "Feature", "properties": { "ID": "IDFM:22401", "LIGNE": "7", "STATION": "Villejuif Paul Vaillant-Couturier" }, "geometry": { "type": "Point", "coordinates": [ 2.368331601577642, 48.796317934160143 ] } },
{ "type": "Feature", "properties": { "ID": "IDFM:22364", "LIGNE": "7", "STATION": "Châtelet" }, "geometry": { "type": "Point", "coordinates": [ 2.348160991234578, 48.856953460785334 ] } },
{ "type": "Feature", "properties": { "ID": "IDFM:22375", "LIGNE": "7", "STATION": "Pyramides" }, "geometry": { "type": "Point", "coordinates": [ 2.334417535966555, 48.865880289914124 ] } },
{ "type": "Feature", "properties": { "ID": "IDFM:463206", "LIGNE": "7", "STATION": "Le Peletier" }, "geometry": { "type": "Point", "coordinates": [ 2.340206459456337, 48.874851793670715 ] } },
{ "type": "Feature", "properties": { "ID": "IDFM:22389", "LIGNE": "7", "STATION": "Corentin Cariou" }, "geometry": { "type": "Point", "coordinates": [ 2.382291557164633, 48.89467266005628 ] } },
{ "type": "Feature", "properties": { "ID": "IDFM:463179", "LIGNE": "7", "STATION": "Fort d'Aubervilliers" }, "geometry": { "type": "Point", "coordinates": [ 2.404187821795194, 48.91470775289347 ] } },
{ "type": "Feature", "properties": { "ID": "IDFM:22186", "LIGNE": "8", "STATION": "Balard" }, "geometry": { "type": "Point", "coordinates": [ 2.278509358806999, 48.836650792286115 ] } },
{ "type": "Feature", "properties": { "ID": "IDFM:22188", "LIGNE": "8", "STATION": "Boucicaut" }, "geometry": { "type": "Point", "coordinates": [ 2.28791843112456, 48.841024160993214 ] } },
{ "type": "Feature", "properties": { "ID": "IDFM:22183", "LIGNE": "8", "STATION": "La Motte-Picquet - Grenelle" }, "geometry": { "type": "Point", "coordinates": [ 2.298745444388579, 48.849506181746563 ] } },
{ "type": "Feature", "properties": { "ID": "IDFM:22192", "LIGNE": "8", "STATION": "La Tour-Maubourg" }, "geometry": { "type": "Point", "coordinates": [ 2.310588789873988, 48.857669229564031 ] } },
{ "type": "Feature", "properties": { "ID": "IDFM:22194", "LIGNE": "8", "STATION": "Madeleine" }, "geometry": { "type": "Point", "coordinates": [ 2.326027211772999, 48.869565616117718 ] } },
{ "type": "Feature", "properties": { "ID": "IDFM:22159", "LIGNE": "8", "STATION": "Strasbourg - Saint-Denis" }, "geometry": { "type": "Point", "coordinates": [ 2.353744768129407, 48.869385723991194 ] } },
{ "type": "Feature", "properties": { "ID": "IDFM:477914", "LIGNE": "T1", "STATION": "Asnières - Quatre Routes" }, "geometry": { "type": "Point", "coordinates": [ 2.274618464997227, 48.927289535775131 ] } },
{ "type": "Feature", "properties": { "ID": "IDFM:23277", "LIGNE": "T1", "STATION": "Les Courtilles" }, "geometry": { "type": "Point", "coordinates": [ 2.28373684985466, 48.930150197596497 ] } },
{ "type": "Feature", "properties": { "ID": "IDFM:460549", "LIGNE": "T1", "STATION": "Hôpital Delafontaine" }, "geometry": { "type": "Point", "coordinates": [ 2.371087787558052, 48.933554138194147 ] } },
{ "type": "Feature", "properties": { "ID": "IDFM:24429", "LIGNE": "T1", "STATION": "Stade Géo André" }, "geometry": { "type": "Point", "coordinates": [ 2.402068768465492, 48.924333143154982 ] } },
{ "type": "Feature", "properties": { "ID": "IDFM:24427", "LIGNE": "T1", "STATION": "Danton" }, "geometry": { "type": "Point", "coordinates": [ 2.406618691605552, 48.922656100102074 ] } },
{ "type": "Feature", "properties": { "ID": "IDFM:22261", "LIGNE": "T1", "STATION": "Gaston Roulaud" }, "geometry": { "type": "Point", "coordinates": [ 2.431262727064243, 48.914061453007129 ] } },
{ "type": "Feature", "properties": { "ID": "IDFM:22258", "LIGNE": "T1", "STATION": "Auguste Delaune" }, "geometry": { "type": "Point", "coordinates": [ 2.460510822751747, 48.906660617310607 ] } },
{ "type": "Feature", "properties": { "ID": "IDFM:22635", "LIGNE": "T1", "STATION": "Gare de Saint-Denis" }, "geometry": { "type": "Point", "coordinates": [ 2.346390407646562, 48.936164817887715 ] } },
{ "type": "Feature", "properties": { "ID": "IDFM:23289", "LIGNE": "T1", "STATION": "Chemin des Reniers" }, "geometry": { "type": "Point", "coordinates": [ 2.321444095344165, 48.934641273309346 ] } },
{ "type": "Feature", "properties": { "ID": "IDFM:23444", "LIGNE": "T2", "STATION": "Musée de Sèvres" }, "geometry": { "type": "Point", "coordinates": [ 2.22543668443778, 48.828818030317777 ] } },
{ "type": "Feature", "properties": { "ID": "IDFM:23427", "LIGNE": "T2", "STATION": "Parc Pierre Lagravère" }, "geometry": { "type": "Point", "coordinates": [ 2.224632386054727, 48.917695642094792 ] } },
{ "type": "Feature", "properties": { "ID": "IDFM:25647", "LIGNE": "T2", "STATION": "Pont de Bezons" }, "geometry": { "type": "Point", "coordinates": [ 2.217615291752479, 48.92336065929193 ] } },
{ "type": "Feature", "properties": { "ID": "IDFM:25641", "LIGNE": "T2", "STATION": "La Défense (Grande Arche)" }, "geometry": { "type": "Point", "coordinates": [ 2.237383596838505, 48.8930550980173 ] } },
{ "type": "Feature", "properties": { "ID": "IDFM:22302", "LIGNE": "T2", "STATION": "Musée de Sèvres" }, "geometry": { "type": "Point", "coordinates": [ 2.225273099572228, 48.828825964596128 ] } },
{ "type": "Feature", "properties": { "ID": "IDFM:460557", "LIGNE": "T2", "STATION": "Henri Farman" }, "geometry": { "type": "Point", "coordinates": [ 2.271398029105086, 48.834665033908735 ] } },
{ "type": "Feature", "properties": { "ID": "IDFM:24104", "LIGNE": "T3a", "STATION": "Brancion" }, "geometry": { "type": "Point", "coordinates": [ 2.300687977410294, 48.828643166504257 ] } },
{ "type": "Feature", "properties": { "ID": "IDFM:24133", "LIGNE": "T3a", "STATION": "Porte d'Ivry" }, "geometry": { "type": "Point", "coordinates": [ 2.370174686433431, 48.821816307706001 ] } },
{ "type": "Feature", "properties": { "ID": "IDFM:460560", "LIGNE": "T3a", "STATION": "Porte de Vincennes" }, "geometry": { "type": "Point", "coordinates": [ 2.409537985824141, 48.846983497572701 ] } },
{ "type": "Feature", "properties": { "ID": "IDFM:24135", "LIGNE": "T3a", "STATION": "Porte Dorée" }, "geometry": { "type": "Point", "coordinates": [ 2.405898515130599, 48.835129916760437 ] } },
{ "type": "Feature", "properties": { "ID": "IDFM:24141", "LIGNE": "T3a", "STATION": "Maryse Bastié" }, "geometry": { "type": "Point", "coordinates": [ 2.377553438124593, 48.824382190272274 ] } },
{ "type": "Feature", "properties": { "ID": "IDFM:24128", "LIGNE": "T3a", "STATION": "Porte de Vanves" }, "geometry": { "type": "Point", "coordinates": [ 2.306683870807259, 48.827454921561646 ] } },
{ "type": "Feature", "properties": { "ID": "IDFM:462443", "LIGNE": "T3b", "STATION": "Angélique Compoint - Porte de Montmartre" }, "geometry": { "type": "Point", "coordinates": [ 2.33819730606284, 48.89777357433254 ] } },
{ "type": "Feature", "properties": { "ID": "IDFM:462444", "LIGNE": "T3b", "STATION": "Diane Arbus - Porte des Poissonniers" }, "geometry": { "type": "Point", "coordinates": [ 2.351721766125652, 48.898297205948758 ] } },
{ "type": "Feature", "properties": { "ID": "IDFM:412988", "LIGNE": "T3b", "STATION": "Porte de la Chapelle" }, "geometry": { "type": "Point", "coordinates": [ 2.358459478922367, 48.89834248111346 ] } },
{ "type": "Feature", "properties": { "ID": "IDFM:24420", "LIGNE": "T3b", "STATION": "Colette Besson" }, "geometry": { "type": "Point", "coordinates": [ 2.363627908682209, 48.898442000996482 ] } },
{ "type": "Feature", "properties": { "ID": "IDFM:29379", "LIGNE": "T3b", "STATION": "Porte de la Villette" }, "geometry": { "type": "Point", "coordinates": [ 2.38650099443207, 48.897419226086392 ] } },
{ "type": "Feature", "properties": { "ID": "IDFM:24533", "LIGNE": "T3b", "STATION": "Delphine Seyrig" }, "geometry": { "type": "Point", "coordinates": [ 2.397644770882582, 48.893887526393208 ] } },
{ "type": "Feature", "properties": { "ID": "IDFM:24410", "LIGNE": "T3b", "STATION": "Hôpital Robert Debré" }, "geometry": { "type": "Point", "coordinates": [ 2.401274546099593, 48.879498586899523 ] } },
{ "type": "Feature", "properties": { "ID": "IDFM:28859", "LIGNE": "T5", "STATION": "Alcide d'Orbigny" }, "geometry": { "type": "Point", "coordinates": [ 2.36293127018041, 48.965399304705166 ] } },
{ "type": "Feature", "properties": { "ID": "IDFM:28858", "LIGNE": "T5", "STATION": "Joncherolles" }, "geometry": { "type": "Point", "coordinates": [ 2.358272439968033, 48.955563484832417 ] } },
{ "type": "Feature", "properties": { "ID": "IDFM:28862", "LIGNE": "T5", "STATION": "Roger Semât" }, "geometry": { "type": "Point", "coordinates": [ 2.35706706340158, 48.944819699841098 ] } },
{ "type": "Feature", "properties": { "ID": "IDFM:28856", "LIGNE": "T5", "STATION": "Alcide d'Orbigny" }, "geometry": { "type": "Point", "coordinates": [ 2.363595286356353, 48.965825482550109 ] } },
{ "type": "Feature", "properties": { "ID": "IDFM:28872", "LIGNE": "T5", "STATION": "Les Flanades" }, "geometry": { "type": "Point", "coordinates": [ 2.377478871038901, 48.97663544849064 ] } },
{ "type": "Feature", "properties": { "ID": "IDFM:2344", "LIGNE": "T6", "STATION": "Hôpital Béclère" }, "geometry": { "type": "Point", "coordinates": [ 2.254454266972538, 48.786748628561156 ] } },
{ "type": "Feature", "properties": { "ID": "IDFM:2333", "LIGNE": "T6", "STATION": "Inovel Parc Nord" }, "geometry": { "type": "Point", "coordinates": [ 2.209032496556274, 48.781428816835003 ] } },
{ "type": "Feature", "properties": { "ID": "IDFM:2328", "LIGNE": "T6", "STATION": "Dewoitine" }, "geometry": { "type": "Point", "coordinates": [ 2.214444234350852, 48.783569174000206 ] } },
{ "type": "Feature", "properties": { "ID": "IDFM:41671", "LIGNE": "T6", "STATION": "Vauban" }, "geometry": { "type": "Point", "coordinates": [ 2.294303174422188, 48.807218216608163 ] } },
{ "type": "Feature", "properties": { "ID": "IDFM:42111", "LIGNE": "T8", "STATION": "Gilbert Bonnemaison" }, "geometry": { "type": "Point", "coordinates": [ 2.307736924617874, 48.955363293745279 ] } },
{ "type": "Feature", "properties": { "ID": "IDFM:42101", "LIGNE": "T8", "STATION": "Épinay - Orgemont" }, "geometry": { "type": "Point", "coordinates": [ 2.295378173633123, 48.955417199638092 ] } },
{ "type": "Feature", "properties": { "ID": "IDFM:42114", "LIGNE": "T8", "STATION": "Les Béatus" }, "geometry": { "type": "Point", "coordinates": [ 2.321306841575554, 48.951439103399423 ] } },
{ "type": "Feature", "properties": { "ID": "IDFM:42118", "LIGNE": "T8", "STATION": "Pierre de Geyter" }, "geometry": { "type": "Point", "coordinates": [ 2.352694237483845, 48.931981371033622 ] } },
{ "type": "Feature", "properties": { "ID": "IDFM:23300", "LIGNE": "T1", "STATION": "Libération" }, "geometry": { "type": "Point", "coordinates": [ 2.43858476895455, 48.906928572135662 ] } },
{ "type": "Feature", "properties": { "ID": "IDFM:37466", "LIGNE": "T1", "STATION": "Hôtel de Ville de Bobigny" }, "geometry": { "type": "Point", "coordinates": [ 2.443814245584328, 48.906512309954991 ] } },
{ "type": "Feature", "properties": { "ID": "IDFM:23304", "LIGNE": "T1", "STATION": "Hôpital Avicenne" }, "geometry": { "type": "Point", "coordinates": [ 2.425021005984215, 48.915866224596151 ] } },
{ "type": "Feature", "properties": { "ID": "IDFM:23286", "LIGNE": "T1", "STATION": "Parc des Chanteraines" }, "geometry": { "type": "Point", "coordinates": [ 2.313235719764329, 48.933974007702041 ] } },
{ "type": "Feature", "properties": { "ID": "IDFM:23287", "LIGNE": "T1", "STATION": "Gare de Gennevilliers" }, "geometry": { "type": "Point", "coordinates": [ 2.307072422698695, 48.93349787848679 ] } },
{ "type": "Feature", "properties": { "ID": "IDFM:22295", "LIGNE": "T2", "STATION": "Suzanne Lenglen" }, "geometry": { "type": "Point", "coordinates": [ 2.276893006183629, 48.833349315419973 ] } },
{ "type": "Feature", "properties": { "ID": "IDFM:23436", "LIGNE": "T2", "STATION": "Charlebourg" }, "geometry": { "type": "Point", "coordinates": [ 2.238466500167037, 48.90760410767097 ] } },
{ "type": "Feature", "properties": { "ID": "IDFM:23428", "LIGNE": "T2", "STATION": "Jacqueline Auriol" }, "geometry": { "type": "Point", "coordinates": [ 2.234042167836871, 48.910660566492425 ] } },
{ "type": "Feature", "properties": { "ID": "IDFM:23434", "LIGNE": "T2", "STATION": "Les Fauvelles" }, "geometry": { "type": "Point", "coordinates": [ 2.239494331449759, 48.902619395211097 ] } },
{ "type": "Feature", "properties": { "ID": "IDFM:25644", "LIGNE": "T2", "STATION": "Parc de Saint-Cloud" }, "geometry": { "type": "Point", "coordinates": [ 2.22177794256949, 48.843040477407804 ] } },
{ "type": "Feature", "properties": { "ID": "IDFM:22297", "LIGNE": "T2", "STATION": "Les Moulineaux" }, "geometry": { "type": "Point", "coordinates": [ 2.251383642124474, 48.82146439159181 ] } },
{ "type": "Feature", "properties": { "ID": "IDFM:25636", "LIGNE": "T2", "STATION": "Porte d'Issy" }, "geometry": { "type": "Point", "coordinates": [ 2.280989243139218, 48.831692174095693 ] } },
{ "type": "Feature", "properties": { "ID": "IDFM:24113", "LIGNE": "T3a", "STATION": "Georges Brassens" }, "geometry": { "type": "Point", "coordinates": [ 2.29645235862634, 48.82958965330787 ] } },
{ "type": "Feature", "properties": { "ID": "IDFM:24132", "LIGNE": "T3a", "STATION": "Jean Moulin" }, "geometry": { "type": "Point", "coordinates": [ 2.318884661036553, 48.824656012842546 ] } },
{ "type": "Feature", "properties": { "ID": "IDFM:24120", "LIGNE": "T3a", "STATION": "Porte de Choisy" }, "geometry": { "type": "Point", "coordinates": [ 2.364016745245404, 48.819715143423743 ] } },
{ "type": "Feature", "properties": { "ID": "IDFM:36482", "LIGNE": "T3a", "STATION": "Baron le Roy" }, "geometry": { "type": "Point", "coordinates": [ 2.393475036679109, 48.830336895691396 ] } },
{ "type": "Feature", "properties": { "ID": "IDFM:40067", "LIGNE": "T3a", "STATION": "Montempoivre" }, "geometry": { "type": "Point", "coordinates": [ 2.408937367696815, 48.839866619948729 ] } },
{ "type": "Feature", "properties": { "ID": "IDFM:24107", "LIGNE": "T3a", "STATION": "Alexandra David-Néel" }, "geometry": { "type": "Point", "coordinates": [ 2.410025006515427, 48.84368526694643 ] } },
{ "type": "Feature", "properties": { "ID": "IDFM:24137", "LIGNE": "T3a", "STATION": "Avenue de France" }, "geometry": { "type": "Point", "coordinates": [ 2.38090380569617, 48.825559774713312 ] } },
{ "type": "Feature", "properties": { "ID": "IDFM:24109", "LIGNE": "T3a", "STATION": "Jean Moulin" }, "geometry": { "type": "Point", "coordinates": [ 2.318828771097265, 48.824763620104996 ] } },
{ "type": "Feature", "properties": { "ID": "IDFM:24422", "LIGNE": "T3b", "STATION": "Adrienne Bolland" }, "geometry": { "type": "Point", "coordinates": [ 2.408513529476805, 48.872411874653075 ] } },
{ "type": "Feature", "properties": { "ID": "IDFM:24415", "LIGNE": "T3b", "STATION": "Porte des Lilas" }, "geometry": { "type": "Point", "coordinates": [ 2.407046599200534, 48.876721408971456 ] } },
{ "type": "Feature", "properties": { "ID": "IDFM:412987", "LIGNE": "T3b", "STATION": "Porte de la Chapelle" }, "geometry": { "type": "Point", "coordinates": [ 2.358390063150539, 48.898441034062756 ] } },
{ "type": "Feature", "properties": { "ID": "IDFM:28846", "LIGNE": "T5", "STATION": "Marché de Saint-Denis" }, "geometry": { "type": "Point", "coordinates": [ 2.35629311953009, 48.938961229214492 ] } },
{ "type": "Feature", "properties": { "ID": "IDFM:28849", "LIGNE": "T5", "STATION": "Joncherolles" }, "geometry": { "type": "Point", "coordinates": [ 2.358368020340215, 48.955563996356631 ] } },
{ "type": "Feature", "properties": { "ID": "IDFM:28854", "LIGNE": "T5", "STATION": "Mairie de Pierrefitte" }, "geometry": { "type": "Point", "coordinates": [ 2.360250656896024, 48.963478600410447 ] } },
{ "type": "Feature", "properties": { "ID": "IDFM:35945", "LIGNE": "T7", "STATION": "Lamartine" }, "geometry": { "type": "Point", "coordinates": [ 2.367075628248895, 48.783144024972373 ] } },
{ "type": "Feature", "properties": { "ID": "IDFM:35939", "LIGNE": "T7", "STATION": "Saarinen" }, "geometry": { "type": "Point", "coordinates": [ 2.354335645500131, 48.750219951350729 ] } },
{ "type": "Feature", "properties": { "ID": "IDFM:460558", "LIGNE": "T7", "STATION": "Coeur d'Orly" }, "geometry": { "type": "Point", "coordinates": [ 2.371566084358229, 48.733492341979158 ] } },
{ "type": "Feature", "properties": { "ID": "IDFM:29901", "LIGNE": "T7", "STATION": "Porte de Rungis" }, "geometry": { "type": "Point", "coordinates": [ 2.355300063737511, 48.752527714710325 ] } },
{ "type": "Feature", "properties": { "ID": "IDFM:35941", "LIGNE": "T7", "STATION": "La Belle Epine" }, "geometry": { "type": "Point", "coordinates": [ 2.368430177751988, 48.756690291441302 ] } },
{ "type": "Feature", "properties": { "ID": "IDFM:35930", "LIGNE": "T7", "STATION": "Porte de Thiais" }, "geometry": { "type": "Point", "coordinates": [ 2.366381339786971, 48.759620568772121 ] } },
{ "type": "Feature", "properties": { "ID": "IDFM:41952", "LIGNE": "T6", "STATION": "Centre de Châtillon" }, "geometry": { "type": "Point", "coordinates": [ 2.28900627366513, 48.804227809924697 ] } },
{ "type": "Feature", "properties": { "ID": "IDFM:41856", "LIGNE": "T6", "STATION": "Division Leclerc" }, "geometry": { "type": "Point", "coordinates": [ 2.272625719033591, 48.794523611181916 ] } },
{ "type": "Feature", "properties": { "ID": "IDFM:2347", "LIGNE": "T6", "STATION": "Meudon-la-Forêt" }, "geometry": { "type": "Point", "coordinates": [ 2.225304982588472, 48.7835951131364 ] } },
{ "type": "Feature", "properties": { "ID": "IDFM:422037", "LIGNE": "T6", "STATION": "Viroflay - Rive Gauche" }, "geometry": { "type": "Point", "coordinates": [ 2.171199118538586, 48.800995646544131 ] } },
{ "type": "Feature", "properties": { "ID": "IDFM:41851", "LIGNE": "T6", "STATION": "Vélizy 2" }, "geometry": { "type": "Point", "coordinates": [ 2.219990868647031, 48.784909674377559 ] } },
{ "type": "Feature", "properties": { "ID": "IDFM:42102", "LIGNE": "T8", "STATION": "Épinay-sur-Seine - Gare" }, "geometry": { "type": "Point", "coordinates": [ 2.301872390098702, 48.955841876741772 ] } },
{ "type": "Feature", "properties": { "ID": "IDFM:42129", "LIGNE": "T8", "STATION": "Villetaneuse - Université" }, "geometry": { "type": "Point", "coordinates": [ 2.342071486091147, 48.95926160265617 ] } },
{ "type": "Feature", "properties": { "ID": "IDFM:42124", "LIGNE": "T8", "STATION": "Paul Éluard" }, "geometry": { "type": "Point", "coordinates": [ 2.345144561923666, 48.939710193108908 ] } },
{ "type": "Feature", "properties": { "ID": "IDFM:42123", "LIGNE": "T8", "STATION": "Saint-Denis - Porte de Paris" }, "geometry": { "type": "Point", "coordinates": [ 2.357253307986424, 48.929748691761759 ] } },
{ "type": "Feature", "properties": { "ID": "IDFM:22211", "LIGNE": "8", "STATION": "Créteil - L'Échat" }, "geometry": { "type": "Point", "coordinates": [ 2.449369595613371, 48.796610830111561 ] } },
{ "type": "Feature", "properties": { "ID": "IDFM:22209", "LIGNE": "8", "STATION": "Liberté" }, "geometry": { "type": "Point", "coordinates": [ 2.406491231469926, 48.826148180607525 ] } },
{ "type": "Feature", "properties": { "ID": "IDFM:22208", "LIGNE": "8", "STATION": "Porte de Charenton" }, "geometry": { "type": "Point", "coordinates": [ 2.402511872850073, 48.833449222879473 ] } },
{ "type": "Feature", "properties": { "ID": "IDFM:463050", "LIGNE": "8", "STATION": "Porte Dorée" }, "geometry": { "type": "Point", "coordinates": [ 2.405873912987564, 48.835017374093908 ] } },
{ "type": "Feature", "properties": { "ID": "IDFM:22184", "LIGNE": "8", "STATION": "Daumesnil" }, "geometry": { "type": "Point", "coordinates": [ 2.395573606140371, 48.83967393140864 ] } },
{ "type": "Feature", "properties": { "ID": "IDFM:22200", "LIGNE": "8", "STATION": "Filles du Calvaire" }, "geometry": { "type": "Point", "coordinates": [ 2.366826859795412, 48.863088301886947 ] } },
{ "type": "Feature", "properties": { "ID": "IDFM:21936", "LIGNE": "9", "STATION": "Maraîchers" }, "geometry": { "type": "Point", "coordinates": [ 2.406038544798052, 48.852731020479993 ] } },
{ "type": "Feature", "properties": { "ID": "IDFM:25084", "LIGNE": "9", "STATION": "Buzenval" }, "geometry": { "type": "Point", "coordinates": [ 2.401170769368413, 48.851762439832271 ] } },
{ "type": "Feature", "properties": { "ID": "IDFM:462963", "LIGNE": "9", "STATION": "République" }, "geometry": { "type": "Point", "coordinates": [ 2.363302340780454, 48.867512357811137 ] } },
{ "type": "Feature", "properties": { "ID": "IDFM:463264", "LIGNE": "9", "STATION": "Strasbourg - Saint-Denis" }, "geometry": { "type": "Point", "coordinates": [ 2.353822382009362, 48.869503057302651 ] } },
{ "type": "Feature", "properties": { "ID": "IDFM:463049", "LIGNE": "9", "STATION": "Grands Boulevards" }, "geometry": { "type": "Point", "coordinates": [ 2.343220218342398, 48.871558801223806 ] } },
{ "type": "Feature", "properties": { "ID": "IDFM:463318", "LIGNE": "9", "STATION": "Trocadéro" }, "geometry": { "type": "Point", "coordinates": [ 2.286826249801301, 48.863087979893443 ] } },
{ "type": "Feature", "properties": { "ID": "IDFM:463055", "LIGNE": "9", "STATION": "Rue de la Pompe" }, "geometry": { "type": "Point", "coordinates": [ 2.277916063289398, 48.864037329375087 ] } },
{ "type": "Feature", "properties": { "ID": "IDFM:463038", "LIGNE": "9", "STATION": "Jasmin" }, "geometry": { "type": "Point", "coordinates": [ 2.267933291647067, 48.852433418725568 ] } },
{ "type": "Feature", "properties": { "ID": "IDFM:463233", "LIGNE": "9", "STATION": "Pont de Sèvres" }, "geometry": { "type": "Point", "coordinates": [ 2.230505217088555, 48.829669190746053 ] } },
{ "type": "Feature", "properties": { "ID": "IDFM:21939", "LIGNE": "9", "STATION": "Billancourt" }, "geometry": { "type": "Point", "coordinates": [ 2.237965973200589, 48.831830512849471 ] } },
{ "type": "Feature", "properties": { "ID": "IDFM:21928", "LIGNE": "9", "STATION": "Jasmin" }, "geometry": { "type": "Point", "coordinates": [ 2.268219083521012, 48.852462147844555 ] } },
{ "type": "Feature", "properties": { "ID": "IDFM:21915", "LIGNE": "9", "STATION": "Ranelagh" }, "geometry": { "type": "Point", "coordinates": [ 2.270032697561899, 48.855306214887065 ] } },
{ "type": "Feature", "properties": { "ID": "IDFM:21926", "LIGNE": "9", "STATION": "Havre-Caumartin" }, "geometry": { "type": "Point", "coordinates": [ 2.327651103418782, 48.873666751945123 ] } },
{ "type": "Feature", "properties": { "ID": "IDFM:21909", "LIGNE": "9", "STATION": "Grands Boulevards" }, "geometry": { "type": "Point", "coordinates": [ 2.343167503558387, 48.87141461757831 ] } },
{ "type": "Feature", "properties": { "ID": "IDFM:463133", "LIGNE": "9", "STATION": "Bonne Nouvelle" }, "geometry": { "type": "Point", "coordinates": [ 2.348428667867017, 48.870490072030748 ] } },
{ "type": "Feature", "properties": { "ID": "IDFM:21918", "LIGNE": "9", "STATION": "République" }, "geometry": { "type": "Point", "coordinates": [ 2.363121111132529, 48.867394479222483 ] } },
{ "type": "Feature", "properties": { "ID": "IDFM:463039", "LIGNE": "9", "STATION": "Buzenval" }, "geometry": { "type": "Point", "coordinates": [ 2.401170769368413, 48.851762439832271 ] } },
{ "type": "Feature", "properties": { "ID": "IDFM:463215", "LIGNE": "9", "STATION": "Maraîchers" }, "geometry": { "type": "Point", "coordinates": [ 2.406049006579045, 48.852650130956363 ] } },
{ "type": "Feature", "properties": { "ID": "IDFM:21942", "LIGNE": "9", "STATION": "Robespierre" }, "geometry": { "type": "Point", "coordinates": [ 2.422973086496352, 48.855673808550314 ] } },
{ "type": "Feature", "properties": { "ID": "IDFM:21943", "LIGNE": "9", "STATION": "Croix de Chavaux" }, "geometry": { "type": "Point", "coordinates": [ 2.435854612674583, 48.857992585158016 ] } },
{ "type": "Feature", "properties": { "ID": "IDFM:463234", "LIGNE": "10", "STATION": "Porte d'Auteuil" }, "geometry": { "type": "Point", "coordinates": [ 2.258280744595537, 48.847904123629235 ] } },
{ "type": "Feature", "properties": { "ID": "IDFM:462958", "LIGNE": "10", "STATION": "Javel - André Citroën" }, "geometry": { "type": "Point", "coordinates": [ 2.278043505985406, 48.846086877931405 ] } },
{ "type": "Feature", "properties": { "ID": "IDFM:21986", "LIGNE": "10", "STATION": "Charles Michels" }, "geometry": { "type": "Point", "coordinates": [ 2.285624341799575, 48.846361723482467 ] } },
{ "type": "Feature", "properties": { "ID": "IDFM:463084", "LIGNE": "10", "STATION": "Duroc" }, "geometry": { "type": "Point", "coordinates": [ 2.316284348651704, 48.846680272851657 ] } },
{ "type": "Feature", "properties": { "ID": "IDFM:21976", "LIGNE": "10", "STATION": "Sèvres - Babylone" }, "geometry": { "type": "Point", "coordinates": [ 2.326104689925573, 48.850931505988036 ] } },
{ "type": "Feature", "properties": { "ID": "IDFM:462944", "LIGNE": "10", "STATION": "Cluny - La Sorbonne" }, "geometry": { "type": "Point", "coordinates": [ 2.345021882474457, 48.850793731720536 ] } },
{ "type": "Feature", "properties": { "ID": "IDFM:463192", "LIGNE": "11", "STATION": "Jourdain" }, "geometry": { "type": "Point", "coordinates": [ 2.389325378910096, 48.875247348641416 ] } },
{ "type": "Feature", "properties": { "ID": "IDFM:463319", "LIGNE": "11", "STATION": "Télégraphe" }, "geometry": { "type": "Point", "coordinates": [ 2.398675252948772, 48.875519513947125 ] } },
{ "type": "Feature", "properties": { "ID": "IDFM:463287", "LIGNE": "11", "STATION": "Pyrénées" }, "geometry": { "type": "Point", "coordinates": [ 2.385202915569531, 48.873818790180579 ] } },
{ "type": "Feature", "properties": { "ID": "IDFM:463061", "LIGNE": "11", "STATION": "Hôtel de Ville" }, "geometry": { "type": "Point", "coordinates": [ 2.351423991942873, 48.857600736334462 ] } },
{ "type": "Feature", "properties": { "ID": "IDFM:463236", "LIGNE": "12", "STATION": "Marx Dormoy" }, "geometry": { "type": "Point", "coordinates": [ 2.359808478084024, 48.89057957856722 ] } },
{ "type": "Feature", "properties": { "ID": "IDFM:463173", "LIGNE": "12", "STATION": "Falguière" }, "geometry": { "type": "Point", "coordinates": [ 2.317508711464045, 48.844443351956947 ] } },
{ "type": "Feature", "properties": { "ID": "IDFM:22062", "LIGNE": "12", "STATION": "Mairie d'Issy" }, "geometry": { "type": "Point", "coordinates": [ 2.273560674093182, 48.824164425888021 ] } },
{ "type": "Feature", "properties": { "ID": "IDFM:22057", "LIGNE": "12", "STATION": "Concorde" }, "geometry": { "type": "Point", "coordinates": [ 2.323181449571859, 48.866150034825942 ] } },
{ "type": "Feature", "properties": { "ID": "IDFM:22053", "LIGNE": "12", "STATION": "Marx Dormoy" }, "geometry": { "type": "Point", "coordinates": [ 2.359945883178033, 48.890607292786633 ] } },
{ "type": "Feature", "properties": { "ID": "IDFM:463278", "LIGNE": "13", "STATION": "Porte de Clichy" }, "geometry": { "type": "Point", "coordinates": [ 2.31320835075881, 48.894431288017458 ] } },
{ "type": "Feature", "properties": { "ID": "IDFM:463301", "LIGNE": "13", "STATION": "Saint-Denis - Porte de Paris" }, "geometry": { "type": "Point", "coordinates": [ 2.3561729251016, 48.929922750445755 ] } },
{ "type": "Feature", "properties": { "ID": "IDFM:462954", "LIGNE": "13", "STATION": "Montparnasse Bienvenue" }, "geometry": { "type": "Point", "coordinates": [ 2.320853438302227, 48.842285923604692 ] } },
{ "type": "Feature", "properties": { "ID": "IDFM:22236", "LIGNE": "13", "STATION": "Malakoff - Rue Etienne Dolet" }, "geometry": { "type": "Point", "coordinates": [ 2.296972463702674, 48.815265523780766 ] } },
{ "type": "Feature", "properties": { "ID": "IDFM:monomodalStopPlace:58875", "LIGNE": "A", "STATION": "Rueil-Malmaison" }, "geometry": { "type": "Point", "coordinates": [ 2.172366417897185, 48.887672500646261 ] } },
{ "type": "Feature", "properties": { "ID": "IDFM:monomodalStopPlace:43171", "LIGNE": "A", "STATION": "Nanterre Ville" }, "geometry": { "type": "Point", "coordinates": [ 2.19511769490499, 48.895019726160577 ] } },
{ "type": "Feature", "properties": { "ID": "IDFM:monomodalStopPlace:58270", "LIGNE": "A", "STATION": "Champigny" }, "geometry": { "type": "Point", "coordinates": [ 2.510538043646919, 48.806823094561373 ] } },
{ "type": "Feature", "properties": { "ID": "IDFM:monomodalStopPlace:43114", "LIGNE": "A", "STATION": "Conflans Fin d'Oise" }, "geometry": { "type": "Point", "coordinates": [ 2.074649924571019, 48.991156287258484 ] } },
{ "type": "Feature", "properties": { "ID": "IDFM:monomodalStopPlace:43169", "LIGNE": "A", "STATION": "Nanterre Préfecture" }, "geometry": { "type": "Point", "coordinates": [ 2.222986242991368, 48.895886773064674 ] } },
{ "type": "Feature", "properties": { "ID": "IDFM:monomodalStopPlace:58937", "LIGNE": "A", "STATION": "Noisy - Champs" }, "geometry": { "type": "Point", "coordinates": [ 2.580103342831972, 48.842896195990683 ] } },
{ "type": "Feature", "properties": { "ID": "IDFM:monomodalStopPlace:43152", "LIGNE": "A", "STATION": "Lognes" }, "geometry": { "type": "Point", "coordinates": [ 2.633026934567703, 48.839255049438655 ] } },
{ "type": "Feature", "properties": { "ID": "IDFM:monomodalStopPlace:47889", "LIGNE": "B", "STATION": "Saint-Rémy-lès-Chevreuse" }, "geometry": { "type": "Point", "coordinates": [ 2.071385742904064, 48.702732696472715 ] } },
{ "type": "Feature", "properties": { "ID": "IDFM:monomodalStopPlace:43086", "LIGNE": "B", "STATION": "Orsay Ville" }, "geometry": { "type": "Point", "coordinates": [ 2.180808704459717, 48.697507701915903 ] } },
{ "type": "Feature", "properties": { "ID": "IDFM:monomodalStopPlace:43175", "LIGNE": "B", "STATION": "Palaiseau - Villebon" }, "geometry": { "type": "Point", "coordinates": [ 2.237329249708309, 48.708148933342102 ] } },
{ "type": "Feature", "properties": { "ID": "IDFM:monomodalStopPlace:43177", "LIGNE": "B", "STATION": "Parc de Sceaux" }, "geometry": { "type": "Point", "coordinates": [ 2.309934691589042, 48.769718949712896 ] } },
{ "type": "Feature", "properties": { "ID": "IDFM:monomodalStopPlace:43193", "LIGNE": "B", "STATION": "Sevran Beaudottes" }, "geometry": { "type": "Point", "coordinates": [ 2.524726216447134, 48.94700236504643 ] } },
{ "type": "Feature", "properties": { "ID": "IDFM:monomodalStopPlace:58793", "LIGNE": "B", "STATION": "Villepinte" }, "geometry": { "type": "Point", "coordinates": [ 2.512783848981341, 48.962565407607329 ] } },
{ "type": "Feature", "properties": { "ID": "IDFM:monomodalStopPlace:473364", "LIGNE": "B", "STATION": "Aéroport Charles de Gaulle 2 (Terminal 2)" }, "geometry": { "type": "Point", "coordinates": [ 2.570980047757023, 49.004145547850399 ] } },
{ "type": "Feature", "properties": { "ID": "IDFM:monomodalStopPlace:46222", "LIGNE": "B", "STATION": "Vert Galant" }, "geometry": { "type": "Point", "coordinates": [ 2.566396880698313, 48.944091645418105 ] } },
{ "type": "Feature", "properties": { "ID": "IDFM:monomodalStopPlace:45877", "LIGNE": "B", "STATION": "Gentilly" }, "geometry": { "type": "Point", "coordinates": [ 2.340926830790754, 48.815228092611335 ] } },
{ "type": "Feature", "properties": { "ID": "IDFM:monomodalStopPlace:44493", "LIGNE": "B", "STATION": "Bagneux" }, "geometry": { "type": "Point", "coordinates": [ 2.322008704742158, 48.793336906271492 ] } },
{ "type": "Feature", "properties": { "ID": "IDFM:monomodalStopPlace:57674", "LIGNE": "C", "STATION": "Petit Jouy Les Loges" }, "geometry": { "type": "Point", "coordinates": [ 2.146851969344536, 48.771237688053972 ] } },
{ "type": "Feature", "properties": { "ID": "IDFM:monomodalStopPlace:43136", "LIGNE": "C", "STATION": "Jouy-en-Josas" }, "geometry": { "type": "Point", "coordinates": [ 2.164447836855007, 48.764760068378486 ] } },
{ "type": "Feature", "properties": { "ID": "IDFM:monomodalStopPlace:43091", "LIGNE": "C", "STATION": "Bièvres" }, "geometry": { "type": "Point", "coordinates": [ 2.216160339677356, 48.750872437607747 ] } },
{ "type": "Feature", "properties": { "ID": "IDFM:monomodalStopPlace:43081", "LIGNE": "C", "STATION": "Étréchy" }, "geometry": { "type": "Point", "coordinates": [ 2.194769238198222, 48.493877421500912 ] } },
{ "type": "Feature", "properties": { "ID": "IDFM:monomodalStopPlace:47883", "LIGNE": "C", "STATION": "Chaville - Vélizy" }, "geometry": { "type": "Point", "coordinates": [ 2.183418794340474, 48.799681164467913 ] } },
{ "type": "Feature", "properties": { "ID": "IDFM:monomodalStopPlace:43219", "LIGNE": "C", "STATION": "Versailles Chantiers" }, "geometry": { "type": "Point", "coordinates": [ 2.134907860337346, 48.795260398936129 ] } },
{ "type": "Feature", "properties": { "ID": "IDFM:monomodalStopPlace:46299", "LIGNE": "C", "STATION": "Orly Ville" }, "geometry": { "type": "Point", "coordinates": [ 2.40305489240639, 48.741632306805229 ] } },
{ "type": "Feature", "properties": { "ID": "IDFM:monomodalStopPlace:46035", "LIGNE": "C", "STATION": "Chemin d'Antony" }, "geometry": { "type": "Point", "coordinates": [ 2.312649686391933, 48.747936542587276 ] } },
{ "type": "Feature", "properties": { "ID": "IDFM:monomodalStopPlace:47940", "LIGNE": "C", "STATION": "Massy - Verrières" }, "geometry": { "type": "Point", "coordinates": [ 2.273951148404844, 48.734989268091518 ] } },
{ "type": "Feature", "properties": { "ID": "IDFM:monomodalStopPlace:43099", "LIGNE": "C", "STATION": "Breuillet Village" }, "geometry": { "type": "Point", "coordinates": [ 2.170354257290333, 48.564334134045737 ] } },
{ "type": "Feature", "properties": { "ID": "IDFM:monomodalStopPlace:47925", "LIGNE": "C", "STATION": "Breuillet - Bruyères-le-Châtel" }, "geometry": { "type": "Point", "coordinates": [ 2.192248739435645, 48.577609794363269 ] } },
{ "type": "Feature", "properties": { "ID": "IDFM:monomodalStopPlace:45739", "LIGNE": "C", "STATION": "Juvisy" }, "geometry": { "type": "Point", "coordinates": [ 2.383334629403869, 48.689709409123139 ] } },
{ "type": "Feature", "properties": { "ID": "IDFM:monomodalStopPlace:43180", "LIGNE": "C", "STATION": "Pierrelaye" }, "geometry": { "type": "Point", "coordinates": [ 2.154531394875856, 49.019179573747557 ] } },
{ "type": "Feature", "properties": { "ID": "IDFM:22085", "LIGNE": "1", "STATION": "Concorde" }, "geometry": { "type": "Point", "coordinates": [ 2.32289099371916, 48.866472156532026 ] } },
{ "type": "Feature", "properties": { "ID": "IDFM:22081", "LIGNE": "1", "STATION": "Louvre - Rivoli" }, "geometry": { "type": "Point", "coordinates": [ 2.34090261348099, 48.860780908786978 ] } },
{ "type": "Feature", "properties": { "ID": "IDFM:463080", "LIGNE": "1", "STATION": "Hôtel de Ville" }, "geometry": { "type": "Point", "coordinates": [ 2.3520676701391, 48.857352405185871 ] } },
{ "type": "Feature", "properties": { "ID": "IDFM:22089", "LIGNE": "1", "STATION": "Bastille" }, "geometry": { "type": "Point", "coordinates": [ 2.368718961034089, 48.852054293497723 ] } },
{ "type": "Feature", "properties": { "ID": "IDFM:22091", "LIGNE": "1", "STATION": "Hôtel de Ville" }, "geometry": { "type": "Point", "coordinates": [ 2.3520676701391, 48.857352405185871 ] } },
{ "type": "Feature", "properties": { "ID": "IDFM:463218", "LIGNE": "1", "STATION": "Louvre - Rivoli" }, "geometry": { "type": "Point", "coordinates": [ 2.340996427272023, 48.860907334263267 ] } },
{ "type": "Feature", "properties": { "ID": "IDFM:463010", "LIGNE": "1", "STATION": "Champs-Élysées - Clemenceau" }, "geometry": { "type": "Point", "coordinates": [ 2.314464501322781, 48.867656292193828 ] } },
{ "type": "Feature", "properties": { "ID": "IDFM:22116", "LIGNE": "2", "STATION": "Ménilmontant" }, "geometry": { "type": "Point", "coordinates": [ 2.38353966877949, 48.866440166781686 ] } },
{ "type": "Feature", "properties": { "ID": "IDFM:22120", "LIGNE": "2", "STATION": "Colonel Fabien" }, "geometry": { "type": "Point", "coordinates": [ 2.370576102819657, 48.877695345805535 ] } },
{ "type": "Feature", "properties": { "ID": "IDFM:462982", "LIGNE": "2", "STATION": "La Chapelle" }, "geometry": { "type": "Point", "coordinates": [ 2.360430336162137, 48.884476483409642 ] } },
{ "type": "Feature", "properties": { "ID": "IDFM:463113", "LIGNE": "2", "STATION": "Blanche" }, "geometry": { "type": "Point", "coordinates": [ 2.332484375434363, 48.883766354477153 ] } },
{ "type": "Feature", "properties": { "ID": "IDFM:22117", "LIGNE": "2", "STATION": "Monceau" }, "geometry": { "type": "Point", "coordinates": [ 2.309412967374703, 48.880568770126835 ] } },
{ "type": "Feature", "properties": { "ID": "IDFM:463322", "LIGNE": "2", "STATION": "Victor Hugo" }, "geometry": { "type": "Point", "coordinates": [ 2.28582876591298, 48.869926082410636 ] } },
{ "type": "Feature", "properties": { "ID": "IDFM:463240", "LIGNE": "2", "STATION": "Monceau" }, "geometry": { "type": "Point", "coordinates": [ 2.309412967374703, 48.880568770126835 ] } },
{ "type": "Feature", "properties": { "ID": "IDFM:22110", "LIGNE": "2", "STATION": "Rome" }, "geometry": { "type": "Point", "coordinates": [ 2.32140397791939, 48.882256139435015 ] } },
{ "type": "Feature", "properties": { "ID": "IDFM:22115", "LIGNE": "2", "STATION": "Place de Clichy" }, "geometry": { "type": "Point", "coordinates": [ 2.32795832801022, 48.883669088272661 ] } },
{ "type": "Feature", "properties": { "ID": "IDFM:463088", "LIGNE": "2", "STATION": "Pigalle" }, "geometry": { "type": "Point", "coordinates": [ 2.338217985455922, 48.882197374648179 ] } },
{ "type": "Feature", "properties": { "ID": "IDFM:22127", "LIGNE": "2", "STATION": "Barbès - Rochechouart" }, "geometry": { "type": "Point", "coordinates": [ 2.350607079355098, 48.883776089556882 ] } },
{ "type": "Feature", "properties": { "ID": "IDFM:22119", "LIGNE": "2", "STATION": "La Chapelle" }, "geometry": { "type": "Point", "coordinates": [ 2.360404169274099, 48.884386410852784 ] } },
{ "type": "Feature", "properties": { "ID": "IDFM:462984", "LIGNE": "2", "STATION": "Colonel Fabien" }, "geometry": { "type": "Point", "coordinates": [ 2.370467574793864, 48.877649808521461 ] } },
{ "type": "Feature", "properties": { "ID": "IDFM:463286", "LIGNE": "3", "STATION": "Père Lachaise" }, "geometry": { "type": "Point", "coordinates": [ 2.386231111328734, 48.863040998366429 ] } },
{ "type": "Feature", "properties": { "ID": "IDFM:22032", "LIGNE": "3", "STATION": "Europe" }, "geometry": { "type": "Point", "coordinates": [ 2.322294641649836, 48.878780759649736 ] } },
{ "type": "Feature", "properties": { "ID": "IDFM:462987", "LIGNE": "3", "STATION": "Villiers" }, "geometry": { "type": "Point", "coordinates": [ 2.315790168508093, 48.881153980760416 ] } },
{ "type": "Feature", "properties": { "ID": "IDFM:22034", "LIGNE": "3", "STATION": "Louise Michel" }, "geometry": { "type": "Point", "coordinates": [ 2.288277849067977, 48.888539001196129 ] } },
{ "type": "Feature", "properties": { "ID": "IDFM:463210", "LIGNE": "3", "STATION": "Louise Michel" }, "geometry": { "type": "Point", "coordinates": [ 2.288168006806735, 48.888493381671928 ] } },
{ "type": "Feature", "properties": { "ID": "IDFM:22028", "LIGNE": "3", "STATION": "Wagram" }, "geometry": { "type": "Point", "coordinates": [ 2.304625140726957, 48.883760675565632 ] } },
{ "type": "Feature", "properties": { "ID": "IDFM:463069", "LIGNE": "3", "STATION": "Europe" }, "geometry": { "type": "Point", "coordinates": [ 2.32218591952051, 48.878753164044767 ] } },
{ "type": "Feature", "properties": { "ID": "IDFM:21902", "LIGNE": "3", "STATION": "République" }, "geometry": { "type": "Point", "coordinates": [ 2.364283168306328, 48.867121861244989 ] } },
{ "type": "Feature", "properties": { "ID": "IDFM:22022", "LIGNE": "3", "STATION": "Porte de Bagnolet" }, "geometry": { "type": "Point", "coordinates": [ 2.408823409080246, 48.86432836987192 ] } },
{ "type": "Feature", "properties": { "ID": "IDFM:463073", "LIGNE": "4", "STATION": "Porte de Clignancourt" }, "geometry": { "type": "Point", "coordinates": [ 2.344624099102791, 48.897525631278015 ] } },
{ "type": "Feature", "properties": { "ID": "IDFM:463148", "LIGNE": "4", "STATION": "Château Rouge" }, "geometry": { "type": "Point", "coordinates": [ 2.349365808004841, 48.887078877467523 ] } },
{ "type": "Feature", "properties": { "ID": "IDFM:22092", "LIGNE": "4", "STATION": "Châtelet" }, "geometry": { "type": "Point", "coordinates": [ 2.346641430844014, 48.859661211559086 ] } },
{ "type": "Feature", "properties": { "ID": "IDFM:22137", "LIGNE": "4", "STATION": "Saint-Michel" }, "geometry": { "type": "Point", "coordinates": [ 2.343964657062377, 48.853584935214847 ] } },
{ "type": "Feature", "properties": { "ID": "IDFM:22138", "LIGNE": "4", "STATION": "Saint-Placide" }, "geometry": { "type": "Point", "coordinates": [ 2.326849962671853, 48.847041473609366 ] } },
{ "type": "Feature", "properties": { "ID": "IDFM:463118", "LIGNE": "4", "STATION": "Alésia" }, "geometry": { "type": "Point", "coordinates": [ 2.327192625065165, 48.828152157703514 ] } },
{ "type": "Feature", "properties": { "ID": "IDFM:463242", "LIGNE": "4", "STATION": "Mouton-Duvernet" }, "geometry": { "type": "Point", "coordinates": [ 2.329887640408421, 48.831337585571532 ] } },
{ "type": "Feature", "properties": { "ID": "IDFM:22136", "LIGNE": "4", "STATION": "Saint-Germain-des-Prés" }, "geometry": { "type": "Point", "coordinates": [ 2.333947810798194, 48.853574563822413 ] } },
{ "type": "Feature", "properties": { "ID": "IDFM:22147", "LIGNE": "4", "STATION": "Etienne Marcel" }, "geometry": { "type": "Point", "coordinates": [ 2.348976196879109, 48.86370301202431 ] } },
{ "type": "Feature", "properties": { "ID": "IDFM:22134", "LIGNE": "4", "STATION": "Strasbourg - Saint-Denis" }, "geometry": { "type": "Point", "coordinates": [ 2.354491616563834, 48.86962358263758 ] } },
{ "type": "Feature", "properties": { "ID": "IDFM:463183", "LIGNE": "4", "STATION": "Gare du Nord" }, "geometry": { "type": "Point", "coordinates": [ 2.356808788205409, 48.879591707410128 ] } },
{ "type": "Feature", "properties": { "ID": "IDFM:463020", "LIGNE": "5", "STATION": "Campo-Formio" }, "geometry": { "type": "Point", "coordinates": [ 2.358741956699346, 48.835542933749352 ] } },
{ "type": "Feature", "properties": { "ID": "IDFM:22001", "LIGNE": "5", "STATION": "Stalingrad" }, "geometry": { "type": "Point", "coordinates": [ 2.367348121277192, 48.884144512894899 ] } },
{ "type": "Feature", "properties": { "ID": "IDFM:463032", "LIGNE": "5", "STATION": "Stalingrad" }, "geometry": { "type": "Point", "coordinates": [ 2.367348121277192, 48.884144512894899 ] } },
{ "type": "Feature", "properties": { "ID": "IDFM:463021", "LIGNE": "5", "STATION": "Gare de l'Est" }, "geometry": { "type": "Point", "coordinates": [ 2.357982972943156, 48.876081616617256 ] } },
{ "type": "Feature", "properties": { "ID": "IDFM:22002", "LIGNE": "5", "STATION": "Richard-Lenoir" }, "geometry": { "type": "Point", "coordinates": [ 2.371813630476951, 48.859876937868705 ] } },
{ "type": "Feature", "properties": { "ID": "IDFM:463023", "LIGNE": "5", "STATION": "Gare d'Austerlitz" }, "geometry": { "type": "Point", "coordinates": [ 2.365443180257423, 48.842395852858516 ] } },
{ "type": "Feature", "properties": { "ID": "IDFM:22095", "LIGNE": "6", "STATION": "Charles de Gaulle - Etoile" }, "geometry": { "type": "Point", "coordinates": [ 2.294995735441831, 48.873838614785718 ] } },
{ "type": "Feature", "properties": { "ID": "IDFM:463101", "LIGNE": "6", "STATION": "Passy" }, "geometry": { "type": "Point", "coordinates": [ 2.285580230095473, 48.857531529620402 ] } },
{ "type": "Feature", "properties": { "ID": "IDFM:463305", "LIGNE": "6", "STATION": "Saint-Jacques" }, "geometry": { "type": "Point", "coordinates": [ 2.337096538905496, 48.832857226540206 ] } },
{ "type": "Feature", "properties": { "ID": "IDFM:22168", "LIGNE": "6", "STATION": "Place d'Italie" }, "geometry": { "type": "Point", "coordinates": [ 2.356101612721528, 48.830914982874944 ] } },
{ "type": "Feature", "properties": { "ID": "IDFM:463147", "LIGNE": "6", "STATION": "Chevaleret" }, "geometry": { "type": "Point", "coordinates": [ 2.368095123772669, 48.834945167888243 ] } },
{ "type": "Feature", "properties": { "ID": "IDFM:22181", "LIGNE": "6", "STATION": "Daumesnil" }, "geometry": { "type": "Point", "coordinates": [ 2.396148628489371, 48.839434008053175 ] } },
{ "type": "Feature", "properties": { "ID": "IDFM:22173", "LIGNE": "6", "STATION": "Glacière" }, "geometry": { "type": "Point", "coordinates": [ 2.343497492717988, 48.831170235245835 ] } },
{ "type": "Feature", "properties": { "ID": "IDFM:22160", "LIGNE": "6", "STATION": "Saint-Jacques" }, "geometry": { "type": "Point", "coordinates": [ 2.337154370925007, 48.832916006219165 ] } },
{ "type": "Feature", "properties": { "ID": "IDFM:22164", "LIGNE": "6", "STATION": "Trocadéro" }, "geometry": { "type": "Point", "coordinates": [ 2.287625377853519, 48.86346147371448 ] } },
{ "type": "Feature", "properties": { "ID": "IDFM:463102", "LIGNE": "6", "STATION": "Kléber" }, "geometry": { "type": "Point", "coordinates": [ 2.293325917989232, 48.871301612039105 ] } },
{ "type": "Feature", "properties": { "ID": "IDFM:22394", "LIGNE": "7", "STATION": "Aubervilliers-Pantin Quatre Chemins" }, "geometry": { "type": "Point", "coordinates": [ 2.392114382497849, 48.90379699038963 ] } },
{ "type": "Feature", "properties": { "ID": "IDFM:463008", "LIGNE": "7", "STATION": "Stalingrad" }, "geometry": { "type": "Point", "coordinates": [ 2.368898549057673, 48.884373030561257 ] } },
{ "type": "Feature", "properties": { "ID": "IDFM:22384", "LIGNE": "7", "STATION": "Louis Blanc" }, "geometry": { "type": "Point", "coordinates": [ 2.364356249189079, 48.881241820752713 ] } },
{ "type": "Feature", "properties": { "ID": "IDFM:463283", "LIGNE": "7", "STATION": "Pyramides" }, "geometry": { "type": "Point", "coordinates": [ 2.33429208315197, 48.865830128189948 ] } },
{ "type": "Feature", "properties": { "ID": "IDFM:22376", "LIGNE": "7", "STATION": "Palais Royal - Musée du Louvre" }, "geometry": { "type": "Point", "coordinates": [ 2.337007354765684, 48.862683997769665 ] } },
{ "type": "Feature", "properties": { "ID": "IDFM:22378", "LIGNE": "7", "STATION": "Pont Marie (Cité des Arts)" }, "geometry": { "type": "Point", "coordinates": [ 2.357349968447059, 48.853414749362408 ] } },
{ "type": "Feature", "properties": { "ID": "IDFM:22369", "LIGNE": "7", "STATION": "Sully - Morland" }, "geometry": { "type": "Point", "coordinates": [ 2.361751738126322, 48.851207912543472 ] } },
{ "type": "Feature", "properties": { "ID": "IDFM:463324", "LIGNE": "7", "STATION": "Villejuif Paul Vaillant-Couturier" }, "geometry": { "type": "Point", "coordinates": [ 2.368195583812103, 48.796308221226411 ] } },
{ "type": "Feature", "properties": { "ID": "IDFM:463269", "LIGNE": "7", "STATION": "Villejuif - Louis Aragon" }, "geometry": { "type": "Point", "coordinates": [ 2.367716899053843, 48.787572501132765 ] } },
{ "type": "Feature", "properties": { "ID": "IDFM:22385", "LIGNE": "7", "STATION": "Maison Blanche" }, "geometry": { "type": "Point", "coordinates": [ 2.358538704316134, 48.822168168314832 ] } },
{ "type": "Feature", "properties": { "ID": "IDFM:22391", "LIGNE": "7", "STATION": "Censier - Daubenton" }, "geometry": { "type": "Point", "coordinates": [ 2.351626572605499, 48.840226248513929 ] } },
{ "type": "Feature", "properties": { "ID": "IDFM:22366", "LIGNE": "7", "STATION": "Place Monge" }, "geometry": { "type": "Point", "coordinates": [ 2.352154868578771, 48.842666385642886 ] } },
{ "type": "Feature", "properties": { "ID": "IDFM:463249", "LIGNE": "7", "STATION": "Palais Royal - Musée du Louvre" }, "geometry": { "type": "Point", "coordinates": [ 2.337087286885439, 48.862765381844149 ] } },
{ "type": "Feature", "properties": { "ID": "IDFM:463001", "LIGNE": "7", "STATION": "Gare de l'Est" }, "geometry": { "type": "Point", "coordinates": [ 2.358120525273069, 48.876271214541624 ] } },
{ "type": "Feature", "properties": { "ID": "IDFM:463033", "LIGNE": "7", "STATION": "Louis Blanc" }, "geometry": { "type": "Point", "coordinates": [ 2.365096807452221, 48.880895011629946 ] } },
{ "type": "Feature", "properties": { "ID": "IDFM:22371", "LIGNE": "7", "STATION": "Riquet" }, "geometry": { "type": "Point", "coordinates": [ 2.373764152701256, 48.888108294533588 ] } },
{ "type": "Feature", "properties": { "ID": "IDFM:22187", "LIGNE": "8", "STATION": "Lourmel" }, "geometry": { "type": "Point", "coordinates": [ 2.282241959855077, 48.838660863659918 ] } },
{ "type": "Feature", "properties": { "ID": "IDFM:22189", "LIGNE": "8", "STATION": "Félix Faure" }, "geometry": { "type": "Point", "coordinates": [ 2.29184722036797, 48.842684334796637 ] } },
{ "type": "Feature", "properties": { "ID": "IDFM:22197", "LIGNE": "8", "STATION": "Grands Boulevards" }, "geometry": { "type": "Point", "coordinates": [ 2.342839648636545, 48.871466778444073 ] } },
{ "type": "Feature", "properties": { "ID": "IDFM:463172", "LIGNE": "8", "STATION": "Faidherbe - Chaligny" }, "geometry": { "type": "Point", "coordinates": [ 2.384028566383108, 48.850110544133692 ] } },
{ "type": "Feature", "properties": { "ID": "IDFM:463168", "LIGNE": "8", "STATION": "Daumesnil" }, "geometry": { "type": "Point", "coordinates": [ 2.395573606140371, 48.83967393140864 ] } },
{ "type": "Feature", "properties": { "ID": "IDFM:23281", "LIGNE": "T1", "STATION": "Gare de Gennevilliers" }, "geometry": { "type": "Point", "coordinates": [ 2.307087268884958, 48.933408035079104 ] } },
{ "type": "Feature", "properties": { "ID": "IDFM:23314", "LIGNE": "T1", "STATION": "Cimetière de Saint-Denis" }, "geometry": { "type": "Point", "coordinates": [ 2.363366778455856, 48.936525979859766 ] } },
{ "type": "Feature", "properties": { "ID": "IDFM:23298", "LIGNE": "T1", "STATION": "La Ferme" }, "geometry": { "type": "Point", "coordinates": [ 2.43743650753902, 48.909666054339084 ] } },
{ "type": "Feature", "properties": { "ID": "IDFM:22262", "LIGNE": "T1", "STATION": "Gare de Noisy-le-Sec" }, "geometry": { "type": "Point", "coordinates": [ 2.460294380826373, 48.895957907873928 ] } },
{ "type": "Feature", "properties": { "ID": "IDFM:22264", "LIGNE": "T1", "STATION": "Pont de Bondy" }, "geometry": { "type": "Point", "coordinates": [ 2.469998366165747, 48.904715517009841 ] } },
{ "type": "Feature", "properties": { "ID": "IDFM:23296", "LIGNE": "T1", "STATION": "Libération" }, "geometry": { "type": "Point", "coordinates": [ 2.438680066806232, 48.906947004800067 ] } },
{ "type": "Feature", "properties": { "ID": "IDFM:23307", "LIGNE": "T1", "STATION": "Gaston Roulaud" }, "geometry": { "type": "Point", "coordinates": [ 2.431330256982518, 48.914124724379953 ] } },
{ "type": "Feature", "properties": { "ID": "IDFM:23303", "LIGNE": "T1", "STATION": "Stade Géo André" }, "geometry": { "type": "Point", "coordinates": [ 2.40209533755292, 48.924396226112556 ] } },
{ "type": "Feature", "properties": { "ID": "IDFM:22269", "LIGNE": "T1", "STATION": "Théâtre Gérard Philipe" }, "geometry": { "type": "Point", "coordinates": [ 2.350332065279392, 48.937517190949052 ] } },
{ "type": "Feature", "properties": { "ID": "IDFM:23308", "LIGNE": "T1", "STATION": "L'Île-Saint-Denis" }, "geometry": { "type": "Point", "coordinates": [ 2.339719591155029, 48.935840481673551 ] } },
{ "type": "Feature", "properties": { "ID": "IDFM:23279", "LIGNE": "T1", "STATION": "Le Luth" }, "geometry": { "type": "Point", "coordinates": [ 2.288627227070098, 48.931843025363094 ] } },
{ "type": "Feature", "properties": { "ID": "IDFM:25637", "LIGNE": "T2", "STATION": "Porte d'Issy" }, "geometry": { "type": "Point", "coordinates": [ 2.281029612339847, 48.831728391907667 ] } },
{ "type": "Feature", "properties": { "ID": "IDFM:25635", "LIGNE": "T2", "STATION": "Issy - Val de Seine" }, "geometry": { "type": "Point", "coordinates": [ 2.262993607226596, 48.829747897980759 ] } },
{ "type": "Feature", "properties": { "ID": "IDFM:23438", "LIGNE": "T2", "STATION": "Jacques-Henri Lartigue" }, "geometry": { "type": "Point", "coordinates": [ 2.260435260711393, 48.824758511423582 ] } },
{ "type": "Feature", "properties": { "ID": "IDFM:25639", "LIGNE": "T2", "STATION": "Meudon-sur-Seine" }, "geometry": { "type": "Point", "coordinates": [ 2.2386541208761, 48.819225479355673 ] } },
{ "type": "Feature", "properties": { "ID": "IDFM:22300", "LIGNE": "T2", "STATION": "Les Coteaux" }, "geometry": { "type": "Point", "coordinates": [ 2.220638181489835, 48.857297064253984 ] } },
{ "type": "Feature", "properties": { "ID": "IDFM:24432", "LIGNE": "T2", "STATION": "Faubourg de l'Arche" }, "geometry": { "type": "Point", "coordinates": [ 2.240124609952915, 48.896822734160914 ] } },
{ "type": "Feature", "properties": { "ID": "IDFM:23435", "LIGNE": "T2", "STATION": "Les Fauvelles" }, "geometry": { "type": "Point", "coordinates": [ 2.239630602789375, 48.902629253656791 ] } },
{ "type": "Feature", "properties": { "ID": "IDFM:23431", "LIGNE": "T2", "STATION": "Victor Basch" }, "geometry": { "type": "Point", "coordinates": [ 2.229667229917251, 48.914031935184809 ] } },
{ "type": "Feature", "properties": { "ID": "IDFM:23437", "LIGNE": "T2", "STATION": "Charlebourg" }, "geometry": { "type": "Point", "coordinates": [ 2.238330742384476, 48.907558278449365 ] } },
{ "type": "Feature", "properties": { "ID": "IDFM:22301", "LIGNE": "T2", "STATION": "Les Coteaux" }, "geometry": { "type": "Point", "coordinates": [ 2.220474910117483, 48.857278013470946 ] } },
{ "type": "Feature", "properties": { "ID": "IDFM:22296", "LIGNE": "T2", "STATION": "Suzanne Lenglen" }, "geometry": { "type": "Point", "coordinates": [ 2.27681264536782, 48.833249898033536 ] } },
{ "type": "Feature", "properties": { "ID": "IDFM:25631", "LIGNE": "T2", "STATION": "Porte de Versailles" }, "geometry": { "type": "Point", "coordinates": [ 2.287212678171775, 48.831855338608442 ] } },
{ "type": "Feature", "properties": { "ID": "IDFM:24114", "LIGNE": "T3a", "STATION": "Porte de Versailles - Parc des Expositions" }, "geometry": { "type": "Point", "coordinates": [ 2.288019793355663, 48.832606629028732 ] } },
{ "type": "Feature", "properties": { "ID": "IDFM:24106", "LIGNE": "T3a", "STATION": "Porte d'Italie" }, "geometry": { "type": "Point", "coordinates": [ 2.36015773399431, 48.818984045420812 ] } },
{ "type": "Feature", "properties": { "ID": "IDFM:24142", "LIGNE": "T3a", "STATION": "Porte de Charenton" }, "geometry": { "type": "Point", "coordinates": [ 2.398455585755042, 48.831971917767255 ] } },
{ "type": "Feature", "properties": { "ID": "IDFM:24126", "LIGNE": "T3a", "STATION": "Porte de Choisy" }, "geometry": { "type": "Point", "coordinates": [ 2.363934374386754, 48.819768668067972 ] } },
{ "type": "Feature", "properties": { "ID": "IDFM:24115", "LIGNE": "T3a", "STATION": "Cité Universitaire" }, "geometry": { "type": "Point", "coordinates": [ 2.338115658368057, 48.820509933065615 ] } },
{ "type": "Feature", "properties": { "ID": "IDFM:24122", "LIGNE": "T3a", "STATION": "Montsouris" }, "geometry": { "type": "Point", "coordinates": [ 2.333389939753411, 48.821544951651092 ] } },
{ "type": "Feature", "properties": { "ID": "IDFM:24111", "LIGNE": "T3a", "STATION": "Porte de Versailles - Parc des Expositions" }, "geometry": { "type": "Point", "coordinates": [ 2.288086429681665, 48.832714950896516 ] } },
{ "type": "Feature", "properties": { "ID": "IDFM:24108", "LIGNE": "T3a", "STATION": "Balard" }, "geometry": { "type": "Point", "coordinates": [ 2.277355761841914, 48.836329047204387 ] } },
{ "type": "Feature", "properties": { "ID": "IDFM:462431", "LIGNE": "T3b", "STATION": "Porte de Clignancourt" }, "geometry": { "type": "Point", "coordinates": [ 2.345110099244715, 48.897991438779712 ] } },
{ "type": "Feature", "properties": { "ID": "IDFM:24407", "LIGNE": "T3b", "STATION": "Porte d'Aubervilliers" }, "geometry": { "type": "Point", "coordinates": [ 2.368919330779054, 48.898523959576423 ] } },
{ "type": "Feature", "properties": { "ID": "IDFM:24401", "LIGNE": "T3b", "STATION": "Canal Saint-Denis" }, "geometry": { "type": "Point", "coordinates": [ 2.380470839927923, 48.898674203588641 ] } },
{ "type": "Feature", "properties": { "ID": "IDFM:24403", "LIGNE": "T3b", "STATION": "Porte de Pantin - Parc de la Villette" }, "geometry": { "type": "Point", "coordinates": [ 2.395587116456805, 48.889029830075266 ] } },
{ "type": "Feature", "properties": { "ID": "IDFM:24418", "LIGNE": "T3b", "STATION": "Hôpital Robert Debré" }, "geometry": { "type": "Point", "coordinates": [ 2.401152353040997, 48.87945300932185 ] } },
{ "type": "Feature", "properties": { "ID": "IDFM:24419", "LIGNE": "T3b", "STATION": "Porte de Bagnolet" }, "geometry": { "type": "Point", "coordinates": [ 2.408765768865789, 48.863401764710233 ] } },
{ "type": "Feature", "properties": { "ID": "IDFM:24396", "LIGNE": "T3b", "STATION": "Porte de Vincennes" }, "geometry": { "type": "Point", "coordinates": [ 2.4096283755134, 48.847424626925871 ] } },
{ "type": "Feature", "properties": { "ID": "IDFM:24404", "LIGNE": "T3b", "STATION": "Butte du Chapeau Rouge" }, "geometry": { "type": "Point", "coordinates": [ 2.396819678860734, 48.885052047319249 ] } },
{ "type": "Feature", "properties": { "ID": "IDFM:460562", "LIGNE": "T3b", "STATION": "Delphine Seyrig" }, "geometry": { "type": "Point", "coordinates": [ 2.397794479232845, 48.893915258835818 ] } },
{ "type": "Feature", "properties": { "ID": "IDFM:24530", "LIGNE": "T3b", "STATION": "Rosa Parks" }, "geometry": { "type": "Point", "coordinates": [ 2.373377140155362, 48.89760308551223 ] } },
{ "type": "Feature", "properties": { "ID": "IDFM:24412", "LIGNE": "T3b", "STATION": "Colette Besson" }, "geometry": { "type": "Point", "coordinates": [ 2.363613279976056, 48.898522861698801 ] } },
{ "type": "Feature", "properties": { "ID": "IDFM:28873", "LIGNE": "T5", "STATION": "Paul Valéry" }, "geometry": { "type": "Point", "coordinates": [ 2.380247523132252, 48.979302567383094 ] } },
{ "type": "Feature", "properties": { "ID": "IDFM:28855", "LIGNE": "T5", "STATION": "Jacques Prévert" }, "geometry": { "type": "Point", "coordinates": [ 2.3659376221572, 48.97086473970564 ] } },
{ "type": "Feature", "properties": { "ID": "IDFM:28863", "LIGNE": "T5", "STATION": "Roger Semât" }, "geometry": { "type": "Point", "coordinates": [ 2.356944088576183, 48.94482803299838 ] } },
{ "type": "Feature", "properties": { "ID": "IDFM:28866", "LIGNE": "T5", "STATION": "Baudelaire" }, "geometry": { "type": "Point", "coordinates": [ 2.356636169972587, 48.942128542860523 ] } },
{ "type": "Feature", "properties": { "ID": "IDFM:28864", "LIGNE": "T5", "STATION": "Guynemer" }, "geometry": { "type": "Point", "coordinates": [ 2.357516863437206, 48.948194399075575 ] } },
{ "type": "Feature", "properties": { "ID": "IDFM:479384", "LIGNE": "T5", "STATION": "Garges - Sarcelles" }, "geometry": { "type": "Point", "coordinates": [ 2.390628312453308, 48.977134609370239 ] } },
{ "type": "Feature", "properties": { "ID": "IDFM:29896", "LIGNE": "T7", "STATION": "Domaine Chérioux" }, "geometry": { "type": "Point", "coordinates": [ 2.3673446251578, 48.778918221808496 ] } },
{ "type": "Feature", "properties": { "ID": "IDFM:35934", "LIGNE": "T7", "STATION": "Porte de Rungis" }, "geometry": { "type": "Point", "coordinates": [ 2.355217345676027, 48.752617211452076 ] } },
{ "type": "Feature", "properties": { "ID": "IDFM:35938", "LIGNE": "T7", "STATION": "Robert Schuman (Parc Silic Centre)" }, "geometry": { "type": "Point", "coordinates": [ 2.352775586823419, 48.746595768446504 ] } },
{ "type": "Feature", "properties": { "ID": "IDFM:35942", "LIGNE": "T7", "STATION": "La Fraternelle" }, "geometry": { "type": "Point", "coordinates": [ 2.352727658537549, 48.741684564028205 ] } },
{ "type": "Feature", "properties": { "ID": "IDFM:29895", "LIGNE": "T7", "STATION": "Domaine Chérioux" }, "geometry": { "type": "Point", "coordinates": [ 2.367466444252223, 48.778972831519006 ] } },
{ "type": "Feature", "properties": { "ID": "IDFM:460559", "LIGNE": "T7", "STATION": "Lamartine" }, "geometry": { "type": "Point", "coordinates": [ 2.367237412186015, 48.78327079902779 ] } },
{ "type": "Feature", "properties": { "ID": "IDFM:29903", "LIGNE": "T7", "STATION": "Villejuif - Louis Aragon" }, "geometry": { "type": "Point", "coordinates": [ 2.367011615613775, 48.787298945688619 ] } },
{ "type": "Feature", "properties": { "ID": "IDFM:41672", "LIGNE": "T6", "STATION": "Vauban" }, "geometry": { "type": "Point", "coordinates": [ 2.294058340581349, 48.807198783099537 ] } },
{ "type": "Feature", "properties": { "ID": "IDFM:41858", "LIGNE": "T6", "STATION": "Soleil Levant" }, "geometry": { "type": "Point", "coordinates": [ 2.2631968070897, 48.790310571948211 ] } },
{ "type": "Feature", "properties": { "ID": "IDFM:2340", "LIGNE": "T6", "STATION": "Mail de la Plaine" }, "geometry": { "type": "Point", "coordinates": [ 2.246984255244028, 48.783742699823129 ] } },
{ "type": "Feature", "properties": { "ID": "IDFM:2335", "LIGNE": "T6", "STATION": "Dewoitine" }, "geometry": { "type": "Point", "coordinates": [ 2.214374970170533, 48.783649666742953 ] } },
{ "type": "Feature", "properties": { "ID": "IDFM:41853", "LIGNE": "T6", "STATION": "Robert Wagner" }, "geometry": { "type": "Point", "coordinates": [ 2.178964233203961, 48.785138491269308 ] } },
{ "type": "Feature", "properties": { "ID": "IDFM:2334", "LIGNE": "T6", "STATION": "Louvois" }, "geometry": { "type": "Point", "coordinates": [ 2.196505663098022, 48.780032066390973 ] } },
{ "type": "Feature", "properties": { "ID": "IDFM:2345", "LIGNE": "T6", "STATION": "Pavé Blanc" }, "geometry": { "type": "Point", "coordinates": [ 2.240004875924587, 48.780748406849249 ] } },
{ "type": "Feature", "properties": { "ID": "IDFM:2342", "LIGNE": "T6", "STATION": "Hôpital Béclère" }, "geometry": { "type": "Point", "coordinates": [ 2.254577527895755, 48.786695432537449 ] } },
{ "type": "Feature", "properties": { "ID": "IDFM:482428", "LIGNE": "T6", "STATION": "Châtillon - Montrouge" }, "geometry": { "type": "Point", "coordinates": [ 2.300673106041069, 48.81045749498012 ] } },
{ "type": "Feature", "properties": { "ID": "IDFM:42122", "LIGNE": "T8", "STATION": "Saint-Denis - Gare" }, "geometry": { "type": "Point", "coordinates": [ 2.34786192297457, 48.935291532763678 ] } },
{ "type": "Feature", "properties": { "ID": "IDFM:42119", "LIGNE": "T8", "STATION": "Paul Éluard" }, "geometry": { "type": "Point", "coordinates": [ 2.345254555508606, 48.939647844150109 ] } },
{ "type": "Feature", "properties": { "ID": "IDFM:42134", "LIGNE": "T8", "STATION": "Pablo Neruda" }, "geometry": { "type": "Point", "coordinates": [ 2.343155430985437, 48.956695637497241 ] } },
{ "type": "Feature", "properties": { "ID": "IDFM:42115", "LIGNE": "T8", "STATION": "Lacépède" }, "geometry": { "type": "Point", "coordinates": [ 2.311525415883553, 48.955942657008009 ] } },
{ "type": "Feature", "properties": { "ID": "IDFM:42113", "LIGNE": "T8", "STATION": "Gilbert Bonnemaison" }, "geometry": { "type": "Point", "coordinates": [ 2.307927485212825, 48.955409357534229 ] } },
{ "type": "Feature", "properties": { "ID": "IDFM:42116", "LIGNE": "T8", "STATION": "Blumenthal" }, "geometry": { "type": "Point", "coordinates": [ 2.33913133956827, 48.947761723568384 ] } },
{ "type": "Feature", "properties": { "ID": "IDFM:42125", "LIGNE": "T8", "STATION": "Delaunay - Belleville" }, "geometry": { "type": "Point", "coordinates": [ 2.347254901999771, 48.945594008289689 ] } },
{ "type": "Feature", "properties": { "ID": "IDFM:22216", "LIGNE": "8", "STATION": "Maisons-Alfort - Les Juilliottes" }, "geometry": { "type": "Point", "coordinates": [ 2.44578830637596, 48.803105850366592 ] } },
{ "type": "Feature", "properties": { "ID": "IDFM:21784", "LIGNE": "8", "STATION": "Pointe du Lac" }, "geometry": { "type": "Point", "coordinates": [ 2.464290193819998, 48.768752248609914 ] } },
{ "type": "Feature", "properties": { "ID": "IDFM:463167", "LIGNE": "8", "STATION": "Créteil - Université" }, "geometry": { "type": "Point", "coordinates": [ 2.450569745534257, 48.789942854325773 ] } },
{ "type": "Feature", "properties": { "ID": "IDFM:22205", "LIGNE": "8", "STATION": "Montgallet" }, "geometry": { "type": "Point", "coordinates": [ 2.39052195642492, 48.844064155282503 ] } },
{ "type": "Feature", "properties": { "ID": "IDFM:22201", "LIGNE": "8", "STATION": "Saint-Sébastien - Froissart" }, "geometry": { "type": "Point", "coordinates": [ 2.367370357789606, 48.860986707979912 ] } },
{ "type": "Feature", "properties": { "ID": "IDFM:22199", "LIGNE": "8", "STATION": "République" }, "geometry": { "type": "Point", "coordinates": [ 2.363256324247903, 48.867485132772032 ] } },
{ "type": "Feature", "properties": { "ID": "IDFM:22198", "LIGNE": "8", "STATION": "Bonne Nouvelle" }, "geometry": { "type": "Point", "coordinates": [ 2.348576002785975, 48.870634768397899 ] } },
{ "type": "Feature", "properties": { "ID": "IDFM:463051", "LIGNE": "8", "STATION": "Balard" }, "geometry": { "type": "Point", "coordinates": [ 2.278362661809201, 48.836667894831081 ] } },
{ "type": "Feature", "properties": { "ID": "IDFM:463299", "LIGNE": "9", "STATION": "Saint-Ambroise" }, "geometry": { "type": "Point", "coordinates": [ 2.373996451922189, 48.861480218467655 ] } },
{ "type": "Feature", "properties": { "ID": "IDFM:21933", "LIGNE": "9", "STATION": "Bonne Nouvelle" }, "geometry": { "type": "Point", "coordinates": [ 2.348494097937537, 48.870643316016903 ] } },
{ "type": "Feature", "properties": { "ID": "IDFM:463036", "LIGNE": "9", "STATION": "Richelieu - Drouot" }, "geometry": { "type": "Point", "coordinates": [ 2.33861635532281, 48.872239433270359 ] } },
{ "type": "Feature", "properties": { "ID": "IDFM:463300", "LIGNE": "9", "STATION": "Saint-Augustin" }, "geometry": { "type": "Point", "coordinates": [ 2.321031570403537, 48.874632152132925 ] } },
{ "type": "Feature", "properties": { "ID": "IDFM:463238", "LIGNE": "9", "STATION": "Michel-Ange - Auteuil" }, "geometry": { "type": "Point", "coordinates": [ 2.263809322022663, 48.84770893216831 ] } },
{ "type": "Feature", "properties": { "ID": "IDFM:21923", "LIGNE": "9", "STATION": "Michel-Ange - Molitor" }, "geometry": { "type": "Point", "coordinates": [ 2.261511916905205, 48.844911227563273 ] } },
{ "type": "Feature", "properties": { "ID": "IDFM:463259", "LIGNE": "9", "STATION": "Porte de Saint-Cloud" }, "geometry": { "type": "Point", "coordinates": [ 2.256789496420714, 48.837997282873808 ] } },
{ "type": "Feature", "properties": { "ID": "IDFM:21930", "LIGNE": "9", "STATION": "Exelmans" }, "geometry": { "type": "Point", "coordinates": [ 2.259800845144346, 48.842580276276529 ] } },
{ "type": "Feature", "properties": { "ID": "IDFM:463203", "LIGNE": "9", "STATION": "La Muette" }, "geometry": { "type": "Point", "coordinates": [ 2.274096244669722, 48.858091966898648 ] } },
{ "type": "Feature", "properties": { "ID": "IDFM:463052", "LIGNE": "9", "STATION": "Alma - Marceau" }, "geometry": { "type": "Point", "coordinates": [ 2.301104352392671, 48.864647147905821 ] } },
{ "type": "Feature", "properties": { "ID": "IDFM:462957", "LIGNE": "9", "STATION": "Miromesnil" }, "geometry": { "type": "Point", "coordinates": [ 2.314676823824269, 48.873692101979138 ] } },
{ "type": "Feature", "properties": { "ID": "IDFM:21925", "LIGNE": "9", "STATION": "Oberkampf" }, "geometry": { "type": "Point", "coordinates": [ 2.368155845394551, 48.864777098521337 ] } },
{ "type": "Feature", "properties": { "ID": "IDFM:21910", "LIGNE": "9", "STATION": "Saint-Ambroise" }, "geometry": { "type": "Point", "coordinates": [ 2.373880538211548, 48.861416657909153 ] } },
{ "type": "Feature", "properties": { "ID": "IDFM:463143", "LIGNE": "9", "STATION": "Charonne" }, "geometry": { "type": "Point", "coordinates": [ 2.384782396448888, 48.854939443448494 ] } },
{ "type": "Feature", "properties": { "ID": "IDFM:21919", "LIGNE": "9", "STATION": "Nation" }, "geometry": { "type": "Point", "coordinates": [ 2.395943721049814, 48.848885218417152 ] } },
{ "type": "Feature", "properties": { "ID": "IDFM:21941", "LIGNE": "9", "STATION": "Mairie de Montreuil" }, "geometry": { "type": "Point", "coordinates": [ 2.441819377245908, 48.862274436970601 ] } },
{ "type": "Feature", "properties": { "ID": "IDFM:21987", "LIGNE": "10", "STATION": "Avenue Émile Zola" }, "geometry": { "type": "Point", "coordinates": [ 2.295045981037148, 48.846957229901747 ] } },
{ "type": "Feature", "properties": { "ID": "IDFM:21984", "LIGNE": "10", "STATION": "Cardinal Lemoine" }, "geometry": { "type": "Point", "coordinates": [ 2.351328001673176, 48.846700035263112 ] } },
{ "type": "Feature", "properties": { "ID": "IDFM:463237", "LIGNE": "10", "STATION": "Maubert - Mutualité" }, "geometry": { "type": "Point", "coordinates": [ 2.34828041316949, 48.850195466069508 ] } },
{ "type": "Feature", "properties": { "ID": "IDFM:21979", "LIGNE": "10", "STATION": "Ségur" }, "geometry": { "type": "Point", "coordinates": [ 2.307252074642872, 48.847226390053955 ] } },
{ "type": "Feature", "properties": { "ID": "IDFM:21974", "LIGNE": "10", "STATION": "Porte d'Auteuil" }, "geometry": { "type": "Point", "coordinates": [ 2.258263918623194, 48.848128861194738 ] } },
{ "type": "Feature", "properties": { "ID": "IDFM:21989", "LIGNE": "10", "STATION": "Boulogne Pont de Saint-Cloud" }, "geometry": { "type": "Point", "coordinates": [ 2.228312589822806, 48.840672482062509 ] } },
{ "type": "Feature", "properties": { "ID": "IDFM:463187", "LIGNE": "11", "STATION": "Goncourt" }, "geometry": { "type": "Point", "coordinates": [ 2.371078837739899, 48.869936723164365 ] } },
{ "type": "Feature", "properties": { "ID": "IDFM:463263", "LIGNE": "11", "STATION": "Porte des Lilas" }, "geometry": { "type": "Point", "coordinates": [ 2.406522676398227, 48.877231430672651 ] } },
{ "type": "Feature", "properties": { "ID": "IDFM:21937", "LIGNE": "11", "STATION": "République" }, "geometry": { "type": "Point", "coordinates": [ 2.364804805140413, 48.867943031200888 ] } },
{ "type": "Feature", "properties": { "ID": "IDFM:21966", "LIGNE": "11", "STATION": "Châtelet" }, "geometry": { "type": "Point", "coordinates": [ 2.347837405568787, 48.857761113545017 ] } },
{ "type": "Feature", "properties": { "ID": "IDFM:463304", "LIGNE": "12", "STATION": "Saint-Georges" }, "geometry": { "type": "Point", "coordinates": [ 2.337454619040091, 48.878361992759487 ] } },
{ "type": "Feature", "properties": { "ID": "IDFM:22050", "LIGNE": "12", "STATION": "Notre-Dame-de-Lorette" }, "geometry": { "type": "Point", "coordinates": [ 2.337873619222639, 48.876035031280601 ] } },
{ "type": "Feature", "properties": { "ID": "IDFM:463164", "LIGNE": "12", "STATION": "Concorde" }, "geometry": { "type": "Point", "coordinates": [ 2.323058362902906, 48.8661808158217 ] } },
{ "type": "Feature", "properties": { "ID": "IDFM:22038", "LIGNE": "12", "STATION": "Montparnasse Bienvenue" }, "geometry": { "type": "Point", "coordinates": [ 2.323989185205003, 48.843823611254471 ] } },
{ "type": "Feature", "properties": { "ID": "IDFM:462949", "LIGNE": "12", "STATION": "Convention" }, "geometry": { "type": "Point", "coordinates": [ 2.296391386480917, 48.837135053804957 ] } },
{ "type": "Feature", "properties": { "ID": "IDFM:463261", "LIGNE": "12", "STATION": "Porte de Versailles" }, "geometry": { "type": "Point", "coordinates": [ 2.287741709142335, 48.832519532513508 ] } },
{ "type": "Feature", "properties": { "ID": "IDFM:463219", "LIGNE": "12", "STATION": "Mairie d'Issy" }, "geometry": { "type": "Point", "coordinates": [ 2.273558168023932, 48.824344287666463 ] } },
{ "type": "Feature", "properties": { "ID": "IDFM:22042", "LIGNE": "12", "STATION": "Porte de Versailles" }, "geometry": { "type": "Point", "coordinates": [ 2.28813294509322, 48.832301514394459 ] } },
{ "type": "Feature", "properties": { "ID": "IDFM:463062", "LIGNE": "12", "STATION": "Notre-Dame-de-Lorette" }, "geometry": { "type": "Point", "coordinates": [ 2.337900771823332, 48.876044174830042 ] } },
{ "type": "Feature", "properties": { "ID": "IDFM:22040", "LIGNE": "12", "STATION": "Pigalle" }, "geometry": { "type": "Point", "coordinates": [ 2.337184009105338, 48.882011788411084 ] } },
{ "type": "Feature", "properties": { "ID": "IDFM:22052", "LIGNE": "12", "STATION": "Marcadet - Poissonniers" }, "geometry": { "type": "Point", "coordinates": [ 2.349979432978202, 48.891452928654672 ] } },
{ "type": "Feature", "properties": { "ID": "IDFM:22219", "LIGNE": "13", "STATION": "Porte de Clichy" }, "geometry": { "type": "Point", "coordinates": [ 2.313659095711831, 48.894640716739211 ] } },
{ "type": "Feature", "properties": { "ID": "IDFM:22238", "LIGNE": "13", "STATION": "Mairie de Clichy" }, "geometry": { "type": "Point", "coordinates": [ 2.305848406357886, 48.903498974626693 ] } },
{ "type": "Feature", "properties": { "ID": "IDFM:22234", "LIGNE": "13", "STATION": "Gabriel Péri" }, "geometry": { "type": "Point", "coordinates": [ 2.294692156360941, 48.916392902088234 ] } },
{ "type": "Feature", "properties": { "ID": "IDFM:463109", "LIGNE": "13", "STATION": "Asnières - Gennevilliers Les Courtilles" }, "geometry": { "type": "Point", "coordinates": [ 2.284216775386713, 48.930544259451466 ] } },
{ "type": "Feature", "properties": { "ID": "IDFM:463207", "LIGNE": "13", "STATION": "Les Agnettes" }, "geometry": { "type": "Point", "coordinates": [ 2.28615583314788, 48.923055662740055 ] } },
{ "type": "Feature", "properties": { "ID": "IDFM:22242", "LIGNE": "13", "STATION": "Saint-Denis - Université" }, "geometry": { "type": "Point", "coordinates": [ 2.364494290510317, 48.945911458883856 ] } },
{ "type": "Feature", "properties": { "ID": "IDFM:462977", "LIGNE": "13", "STATION": "Garibaldi" }, "geometry": { "type": "Point", "coordinates": [ 2.331907872638921, 48.906381080071633 ] } },
{ "type": "Feature", "properties": { "ID": "IDFM:463253", "LIGNE": "13", "STATION": "Place de Clichy" }, "geometry": { "type": "Point", "coordinates": [ 2.327268983025867, 48.883723673452664 ] } },
{ "type": "Feature", "properties": { "ID": "IDFM:463066", "LIGNE": "13", "STATION": "Liège" }, "geometry": { "type": "Point", "coordinates": [ 2.326945027438756, 48.879710826939338 ] } },
{ "type": "Feature", "properties": { "ID": "IDFM:462970", "LIGNE": "13", "STATION": "Saint-Lazare" }, "geometry": { "type": "Point", "coordinates": [ 2.325466892587161, 48.875462135328796 ] } },
{ "type": "Feature", "properties": { "ID": "IDFM:463303", "LIGNE": "13", "STATION": "Saint-François-Xavier" }, "geometry": { "type": "Point", "coordinates": [ 2.314285946180556, 48.85129155093847 ] } },
{ "type": "Feature", "properties": { "ID": "IDFM:22223", "LIGNE": "13", "STATION": "Plaisance" }, "geometry": { "type": "Point", "coordinates": [ 2.313833364032832, 48.831741213701079 ] } },
{ "type": "Feature", "properties": { "ID": "IDFM:463085", "LIGNE": "13", "STATION": "Plaisance" }, "geometry": { "type": "Point", "coordinates": [ 2.313860489344306, 48.831750363067471 ] } },
{ "type": "Feature", "properties": { "ID": "IDFM:22230", "LIGNE": "13", "STATION": "Gaîté" }, "geometry": { "type": "Point", "coordinates": [ 2.322463569405974, 48.838544693081658 ] } },
{ "type": "Feature", "properties": { "ID": "IDFM:22241", "LIGNE": "13", "STATION": "Saint-Denis - Porte de Paris" }, "geometry": { "type": "Point", "coordinates": [ 2.3561729251016, 48.929922750445755 ] } },
{ "type": "Feature", "properties": { "ID": "IDFM:463129", "LIGNE": "14", "STATION": "Bercy" }, "geometry": { "type": "Point", "coordinates": [ 2.379062015227723, 48.840101998033909 ] } },
{ "type": "Feature", "properties": { "ID": "IDFM:21956", "LIGNE": "14", "STATION": "Cour Saint-Emilion" }, "geometry": { "type": "Point", "coordinates": [ 2.386464909364189, 48.833349997250139 ] } },
{ "type": "Feature", "properties": { "ID": "IDFM:463045", "LIGNE": "14", "STATION": "Olympiades" }, "geometry": { "type": "Point", "coordinates": [ 2.367034270941924, 48.826944155043044 ] } },
{ "type": "Feature", "properties": { "ID": "IDFM:463159", "LIGNE": "14", "STATION": "Châtelet" }, "geometry": { "type": "Point", "coordinates": [ 2.346411849769497, 48.859556532726764 ] } },
{ "type": "Feature", "properties": { "ID": "IDFM:21962", "LIGNE": "14", "STATION": "Saint-Lazare" }, "geometry": { "type": "Point", "coordinates": [ 2.324122029700433, 48.875607437185842 ] } },
{ "type": "Feature", "properties": { "ID": "IDFM:463132", "LIGNE": "7B", "STATION": "Bolivar" }, "geometry": { "type": "Point", "coordinates": [ 2.374152140698752, 48.880789805531926 ] } },
{ "type": "Feature", "properties": { "ID": "IDFM:463034", "LIGNE": "7B", "STATION": "Louis Blanc" }, "geometry": { "type": "Point", "coordinates": [ 2.364365143550256, 48.881183411524461 ] } },